     2              OBSERVATION DATA    GPS                 RINEX VERSION / TYPE
BJfmt               Jason               2014-11-14 09:21:06 PGM / RUN BY / DATE
JA2_PLTM1_P_20141114_084611_20141114_071231_20141114_085145 MARKER NAME
ESPC/FileManager    NOAA/NESDIS/OSPO                        OBSERVER / AGENCY
RECNUM              RECTYPE             RECVERS             REC # / TYPE / VERS
ANTNUM              ANTTYPE                                 ANT # / TYPE
        0.0000        0.0000        0.0000                  APPROX POSITION XYZ
        0.0000        0.0000        0.0000                  ANTENNA: DELTA H/E/N
     1     1     0                                          WAVELENGTH FACT L1/2
     5    L1    L2    C1    P1    P2                        # / TYPES OF OBSERV
  5950                                                      INTERVAL
  2014    11    14    07    12   40.000000      GPS         TIME OF FIRST OBS
SNR is mapped to signal strength [0,1,2-9]                  COMMENT
 SNR: >500 >100  >50  >10   >5   >3  >1  >0  bad  n/a       COMMENT
 sig:    9    8    7    6    5    4   3   2    1    0       COMMENT
                                                            END OF HEADER
 14 11 14 07 12 40.0000000  0  4 07 09 10 30
 -19821556.06348 -15445364.47748  19791760.56349  19791761.04048  19791760.70248
 -13424896.52649 -10460957.23149  19754943.27649  19754943.77449  19754945.67749
   2336943.54146   1820999.15246  23057705.75748  23057705.26046  23057707.24446
  -8602224.22246  -6703025.65547  22727199.53848  22727199.82246  22727202.59947
 14 11 14 07 12 50.0000000  0  8 05 07 09 10 13 16 23 30
   1212185.61556    944566.10655  23751795.03858  23751795.31956  23751796.56655
 -19682726.51848 -15337185.61448  19818178.82049  19818179.43748  19818179.08548
 -13446304.20549 -10477638.54249  19750869.51449  19750870.03649  19750871.93649
   2602423.49946   2027866.62646  23108224.94048  23108224.29646  23108225.90546
  -9421824.94257  -7341676.07857  21395761.09958  21395761.58357  21395761.26757
 -12737617.94758  -9925418.19357  20688845.14358  20688845.32958  20688844.89057
 -10650550.14258  -8299128.27758  21283998.35059  21283998.31158  21283996.07758
  -8369690.78546  -6521830.77447  22771448.93848  22771449.29946  22771451.92847
 14 11 14 07 13 00.0000000  0  8 05 07 09 10 13 16 23 30
   1553084.91846   1210201.87345  23816665.69947  23816666.13246  23816666.69645
 -19540868.16248 -15226646.63448  19845173.61949  19845174.10348  19845173.79348
 -13464720.81149 -10491989.14849  19747364.97049  19747365.45249  19747367.44049
   2868905.84346   2235515.18746  23158934.68648  23158934.63646  23158936.24746
  -9156065.20047  -7134590.56147  21446333.63548  21446333.88947  21446333.35647
 -12793092.95748  -9968645.46447  20678288.66748  20678288.65948  20678288.31047
 -10841528.32548  -8447942.45348  21247656.13249  21247656.41548  21247654.25448
  -8135742.06546  -6339533.07047  22815968.04648  22815968.29046  22815971.51247
 14 11 14 07 13 10.0000000  0  8 05 07 09 10 13 16 23 30
   1895050.71346   1476668.84945  23881739.43747  23881740.28346  23881738.69845
 -19395993.43048 -15113757.24548  19872742.40049  19872742.88048  19872742.55548
 -13480137.36149 -10504002.05449  19744431.22049  19744431.80549  19744433.70549
   3136365.81346   2443925.53346  23209830.88248  23209830.33946  23209831.56346
  -8888638.96947  -6926206.49447  21497223.14248  21497223.72847  21497223.45847
 -12844834.70348 -10008963.71447  20668442.71948  20668442.67448  20668442.35147
 -11030637.93548  -8595300.60948  21211669.93849  21211670.05948  21211667.83148
  -7900391.04746  -6156142.68647  22860753.64448  22860754.84246  22860757.22047
 14 11 14 07 13 20.0000000  0  8 05 07 09 10 13 16 23 30
   2238054.41046   1743944.28845  23947011.26647  23947011.36546  23947010.43545
 -19248114.72748 -14998527.09548  19900882.74349  19900883.26048  19900882.94748
 -13492545.09949 -10513670.42149  19742070.08149  19742070.60249  19742072.66449
   3404778.93746   2653078.60646  23260908.42648  23260908.08346  23260909.27646
  -8619567.50247  -6716540.42346  21548425.83248  21548426.26847  21548425.78546
 -12892831.98748 -10046364.20247  20659309.05448  20659308.94548  20659308.77047
 -11217850.86848  -8741180.82648  21176044.65649  21176044.64148  21176042.50448
  -7663650.48746  -5971669.53847  22905803.98648  22905804.75446  22905807.02347
 14 11 14 07 13 30.0000000  0  7 07 09 10 13 16 23 30
 -19097263.24548 -14880980.49448  19929588.78449  19929589.35248  19929589.05348
 -13501954.13449 -10521002.13349  19740279.62649  19740280.09649  19740282.09149
   3674102.52346   2862941.13946  23312158.85348  23312158.59746  23312160.13146
  -8348890.37147  -6505623.17946  21599933.64348  21599934.04647  21599934.07546
 -12937092.35448 -10080852.81047  20650886.48948  20650886.70648  20650886.27047
 -11403157.56548  -8885575.66048  21140781.82149  21140781.97748  21140779.79348
  -7425551.57546  -5786137.92447  22951112.40148  22951113.15646  22951115.97147
 14 11 14 07 13 40.0000000  0  7 07 09 10 13 16 23 30
 -18943434.75448 -14761114.14348  19958861.41049  19958861.91648  19958861.68748
 -13508339.15449 -10525977.46249  19739064.57749  19739065.16849  19739067.06849
   3944329.96246   3073507.96746  23363581.41348  23363579.85746  23363581.71546
  -8076611.17946  -6293457.58146  21651746.71148  21651747.25246  21651746.71346
 -12977588.50048 -10112408.24147  20643180.37148  20643180.45648  20643180.16147
 -11586512.70148  -9028449.79048  21105890.54849  21105890.55448  21105888.40148
  -7186089.72046  -5599544.26046  22996680.50348  22996681.02346  22996683.66546
 14 11 14 07 13 43.0000000  0  1 27
         0.32558         0.69757  20526762.17558  20526763.55958  20526764.07357
 14 11 14 07 13 43.0000000  0  1 27
         0.32548         0.69747  20526762.17548  20526763.55948  20526764.07347
 14 11 14 07 13 45.0000000  0  1 27
         0.24948         0.91844  20517210.95948  20517211.49648  20517240.59244
 14 11 14 07 13 46.0000000  0  1 27
    -25034.67448    -19507.94842  20512447.02148  20512447.40748  20512492.83942
 14 11 14 07 13 47.0000000  0  1 27
    -50022.69448    -38976.13048  20507691.81349  20507692.09948  20507690.74248
 14 11 14 07 13 48.0000000  0  1 27
    -74975.72848    -58420.24548  20502943.70549  20502943.89048  20502946.04648
 14 11 14 07 13 49.0000000  0  1 27
    -99896.81948    -77839.27048  20498201.17249  20498201.35748  20498203.74748
 14 11 14 07 13 50.0000000  0  8 07 09 10 13 16 23 27 30
 -18786731.03158 -14639007.34658  19988681.05459  19988681.65058  19988681.31558
 -13511781.00759 -10528659.42259  19738409.70659  19738410.15359  19738412.11359
   4215349.19456   3284691.77556  23415154.46658  23415154.43656  23415155.70656
  -7802839.19956  -6080128.76656  21703843.76558  21703844.44656  21703844.11756
 -13014399.44858 -10141092.09857  20636175.43958  20636175.51058  20636175.19057
 -11767976.72358  -9169850.33858  21071358.97159  21071359.19958  21071357.05358
   -124772.97148    -97223.29448  20493467.49349  20493467.98948  20493469.93848
  -6945365.94856  -5411967.26456  23042489.06958  23042489.78856  23042491.87856
 14 11 14 07 13 51.0000000  0  1 27
   -149601.25848   -116570.00148  20488742.62149  20488743.04048  20488745.27048
 14 11 14 07 13 52.0000000  0  1 27
   -174386.72548   -135883.35448  20484026.27449  20484026.63748  20484028.95348
 14 11 14 07 13 53.0000000  0  1 27
   -199131.04648   -155164.64948  20479317.42549  20479318.10348  20479320.22948
 14 11 14 07 13 54.0000000  0  1 27
   -223842.48148   -174420.30548  20474615.37349  20474615.45548  20474617.73948
 14 11 14 07 13 55.0000000  0  1 27
   -248522.87048   -193651.77848  20469918.52349  20469918.68148  20469921.01448
 14 11 14 07 13 56.0000000  0  1 27
   -273157.38248   -212847.50648  20465230.69249  20465230.82848  20465233.33048
 14 11 14 07 13 57.0000000  0  1 27
   -297742.67048   -232004.87648  20460552.11649  20460552.47748  20460554.91548
 14 11 14 07 13 58.0000000  0  1 27
   -322283.71448   -251127.76248  20455881.98149  20455883.05148  20455885.05548
 14 11 14 07 13 59.0000000  0  1 27
   -346783.06848   -270218.17348  20451220.46849  20451220.84148  20451222.79848
 14 11 14 07 14 00.0000000  0  8 07 09 10 13 16 23 27 30
 -18627083.41758 -14514606.60458  20019060.92859  20019061.53658  20019061.27158
 -13512190.21859 -10528978.28659  19738331.83959  19738332.35659  19738334.17459
   4487218.86756   3496538.29356  23466889.55858  23466889.31656  23466890.64656
  -7527513.25156  -5865589.07156  21756236.53958  21756237.07156  21756236.43956
 -13047434.33558 -10166833.56757  20629889.22258  20629889.22858  20629888.73057
 -11947439.42558  -9309691.41358  21037208.43259  21037208.55958  21037206.38458
   -371249.61248   -289283.00348  20446564.57749  20446564.97248  20446567.09148
  -6703310.56056  -5223352.69256  23088550.46558  23088549.78756  23088554.03556
 14 11 14 07 14 01.0000000  0  1 27
   -395684.88748   -308323.47448  20441914.56349  20441914.90048  20441917.27648
 14 11 14 07 14 02.0000000  0  1 27
   -420075.08348   -327328.83448  20437273.07249  20437273.64648  20437275.70248
 14 11 14 07 14 03.0000000  0  1 27
   -444415.87848   -346295.69248  20432641.28349  20432641.54448  20432644.22348
 14 11 14 07 14 04.0000000  0  1 27
   -468721.43548   -365235.07248  20428016.33549  20428016.60048  20428018.95048
 14 11 14 07 14 05.0000000  0  1 27
   -492994.52748   -384149.17248  20423397.29849  20423397.56948  20423399.58648
 14 11 14 07 14 06.0000000  0  1 27
   -517221.50048   -403027.33848  20418786.91949  20418787.02748  20418789.62048
 14 11 14 07 14 07.0000000  0  1 27
   -541400.53148   -421868.14148  20414185.47049  20414186.00448  20414188.32348
 14 11 14 07 14 08.0000000  0  1 27
   -565535.14448   -440674.33148  20409593.11249  20409593.31548  20409595.73948
 14 11 14 07 14 09.0000000  0  1 27
   -589627.29948   -459447.44748  20405008.68949  20405008.97248  20405011.12548
 14 11 14 07 14 10.0000000  0  8 07 09 10 13 16 23 27 30
 -18464563.25258 -14387967.51258  20049987.61359  20049988.18258  20049987.82658
 -13509617.38959 -10526973.48259  19738821.39959  19738821.93259  19738823.84259
   4759858.27056   3708984.56056  23518771.20758  23518771.44056  23518772.64256
  -7250711.45356  -5649899.34156  21808910.31058  21808910.71256  21808910.62356
 -13076742.62858 -10189671.19257  20624311.82058  20624311.88858  20624311.73657
 -12124930.37158  -9447996.06158  21003433.01059  21003433.10158  21003431.00958
   -613686.38348   -478194.77548  20400430.32549  20400430.83748  20400432.93548
  -6459993.67256  -5033755.10556  23134852.09158  23134851.87256  23134855.33656
 14 11 14 07 14 11.0000000  0  1 27
   -637711.84448   -496915.91448  20395858.68849  20395858.59948  20395860.85248
 14 11 14 07 14 12.0000000  0  1 27
   -661692.21948   -515601.92648  20391295.22749  20391295.30848  20391297.56448
 14 11 14 07 14 13.0000000  0  1 27
   -685623.55048   -534249.71948  20386741.27949  20386741.59148  20386743.46748
 14 11 14 07 14 14.0000000  0  1 27
   -709519.11948   -552869.63648  20382194.14649  20382194.30048  20382196.60448
 14 11 14 07 14 15.0000000  0  1 27
   -733380.26348   -571462.73348  20377653.31349  20377653.66348  20377655.79248
 14 11 14 07 14 16.0000000  0  1 27
   -757195.32048   -590019.92948  20373121.36149  20373121.76348  20373123.96348
 14 11 14 07 14 17.0000000  0  1 27
   -780961.47348   -608539.00548  20368598.87749  20368599.24948  20368601.56648
 14 11 14 07 14 18.0000000  0  1 27
   -804682.92548   -627023.25248  20364084.98349  20364085.21048  20364087.63248
 14 11 14 07 14 19.0000000  0  1 27
   -828361.27748   -645473.92248  20359578.94649  20359579.28948  20359581.54448
 14 11 14 07 14 20.0000000  0  8 07 09 10 13 16 23 27 30
 -18299179.14158 -14259096.77558  20081459.16859  20081459.77258  20081459.36358
 -13504050.33859 -10522635.52059  19739880.76859  19739881.28959  19739883.20259
   5033250.11756   3922017.16356  23570795.86558  23570795.44556  23570797.17056
  -6972448.48156  -5433071.06556  21861861.61358  21861861.96756  21861862.38956
 -13102311.36558 -10209594.88357  20619446.38658  20619446.51058  20619446.15757
 -12300415.98758  -9584738.11058  20970039.19959  20970039.35958  20970037.26658
   -852005.81448   -663898.22548  20355079.41549  20355080.22948  20355082.16648
  -6215421.94456  -4843179.73456  23181392.60958  23181392.60656  23181396.07456
 14 11 14 07 14 21.0000000  0  1 27
   -875618.79248   -682297.94748  20350586.02549  20350586.45148  20350588.50248
 14 11 14 07 14 22.0000000  0  1 27
   -899184.47948   -700660.83048  20346101.66349  20346102.13648  20346104.41548
 14 11 14 07 14 23.0000000  0  1 27
   -922700.65348   -718985.12248  20341626.48249  20341627.26248  20341629.60148
 14 11 14 07 14 24.0000000  0  1 27
   -946180.09748   -737280.78548  20337158.49749  20337159.16048  20337161.61348
 14 11 14 07 14 25.0000000  0  1 27
   -969625.14448   -755549.64948  20332697.34949  20332697.48848  20332699.92248
 14 11 14 07 14 26.0000000  0  1 27
   -993022.12648   -773781.07148  20328244.96749  20328245.21648  20328247.60748
 14 11 14 07 14 27.0000000  0  1 27
  -1016370.19948   -791974.37748  20323802.07349  20323801.98748  20323804.84448
 14 11 14 07 14 28.0000000  0  1 27
  -1039682.88748   -810140.10048  20319365.67449  20319366.31948  20319368.37148
 14 11 14 07 14 29.0000000  0  1 27
  -1062962.58448   -828280.12248  20314935.63449  20314936.06748  20314938.36248
 14 11 14 07 14 30.0000000  0  8 07 09 10 13 16 23 27 30
 -18130978.11358 -14128031.03658  20113466.86159  20113467.48658  20113466.93958
 -13495515.65159 -10515985.11759  19741504.88059  19741505.33959  19741507.28859
   5307339.00756   4135592.90056  23622953.57858  23622953.51056  23622954.13056
  -6692777.29756  -5215145.45556  21915081.45758  21915082.06856  21915082.11056
 -13124166.80658 -10226625.09357  20615287.45058  20615287.59758  20615287.29457
 -12473901.09058  -9719921.32658  20937026.08759  20937026.31158  20937024.10158
  -1086194.80148   -846383.15548  20310514.72949  20310515.36248  20310517.49748
  -5969640.55356  -4651661.74256  23228163.25158  23228163.24656  23228166.63356
 14 11 14 07 14 31.0000000  0  1 27
  -1109374.81348   -864445.50148  20306103.86949  20306104.05048  20306106.31648
 14 11 14 07 14 32.0000000  0  1 27
  -1132500.56248   -882465.57248  20301703.46249  20301703.24348  20301705.60248
 14 11 14 07 14 33.0000000  0  1 27
  -1155575.41448   -900445.97948  20297312.26949  20297312.53248  20297314.71048
 14 11 14 07 14 34.0000000  0  1 27
  -1178612.05648   -918396.60048  20292928.44649  20292928.69448  20292931.09648
 14 11 14 07 14 35.0000000  0  1 27
  -1201613.50548   -936319.81248  20288551.38449  20288551.83348  20288554.13248
 14 11 14 07 14 36.0000000  0  1 27
  -1224584.08748   -954218.95948  20284180.34849  20284180.62648  20284182.86148
 14 11 14 07 14 37.0000000  0  1 27
  -1247522.87148   -972093.34348  20279814.90049  20279815.34248  20279817.46248
 14 11 14 07 14 38.0000000  0  1 27
  -1270414.27648   -989930.80348  20275459.08549  20275459.33848  20275461.68548
 14 11 14 07 14 39.0000000  0  1 27
  -1293256.22648  -1007729.72348  20271112.40949  20271112.95148  20271115.22548
 14 11 14 07 14 40.0000000  0  8 07 09 10 13 16 23 27 30
 -17959870.80558 -13994700.66458  20146027.48159  20146028.07358  20146027.55458
 -13483903.66959 -10506936.82259  19743714.55059  19743715.01659  19743717.03759
   5582206.38456   4349775.23056  23675258.79458  23675258.35156  23675259.70156
  -6411614.03956  -4996057.19756  21968584.83158  21968584.80856  21968585.68756
 -13142198.99658 -10240676.14757  20611856.04258  20611856.06258  20611855.84457
 -12645254.00258  -9853443.09358  20904418.59859  20904418.90458  20904416.84358
  -1316060.52248  -1025499.30148  20266773.08649  20266773.31548  20266775.56948
  -5722557.85156  -4459129.76056  23275181.35858  23275181.19656  23275184.48656
 14 11 14 07 14 41.0000000  0  1 27
  -1338828.35848  -1043240.47048  20262440.18049  20262440.63248  20262442.69248
 14 11 14 07 14 42.0000000  0  1 27
  -1361547.76848  -1060943.91548  20258116.71549  20258117.16148  20258119.48748
 14 11 14 07 14 43.0000000  0  1 27
  -1384217.36248  -1078608.53048  20253803.00449  20253803.70748  20253805.52148
 14 11 14 07 14 44.0000000  0  1 27
  -1406849.99048  -1096244.33748  20249495.92449  20249496.69348  20249498.86948
 14 11 14 07 14 45.0000000  0  1 27
  -1429446.99048  -1113852.39248  20245196.08749  20245196.54948  20245198.69748
 14 11 14 07 14 46.0000000  0  1 27
  -1451996.48648  -1131423.43348  20240905.20949  20240905.38748  20240907.51448
 14 11 14 07 14 47.0000000  0  1 27
  -1474496.74148  -1148956.10048  20236623.41249  20236623.52248  20236626.14648
 14 11 14 07 14 48.0000000  0  1 27
  -1496952.13348  -1166453.80848  20232350.04149  20232350.50948  20232352.68748
 14 11 14 07 14 49.0000000  0  1 27
  -1519362.92048  -1183916.75748  20228085.61549  20228086.11248  20228088.39848
 14 11 14 07 14 50.0000000  0  8 07 09 10 13 16 23 27 30
 -17786038.18258 -13859246.66558  20179106.71459  20179107.23758  20179106.75758
 -13469375.05059 -10495615.81759  19746479.21059  19746479.70959  19746481.79559
   5857663.99556   4564417.53756  23727676.66558  23727677.19656  23727677.57956
  -6129144.86956  -4775951.34556  22022337.09358  22022337.34656  22022337.28556
 -13156568.68758 -10251873.29857  20609121.68658  20609121.79358  20609121.36557
 -12814613.09558  -9985411.22458  20872190.80759  20872190.84458  20872188.75658
  -1541737.84948  -1201351.76148  20223828.12649  20223828.55048  20223830.42848
  -5474352.10056  -4265722.68356  23322413.65158  23322413.33456  23322417.12356
 14 11 14 07 14 51.0000000  0  1 27
  -1564079.20248  -1218760.60548  20219576.42349  20219576.94248  20219578.98748
 14 11 14 07 14 52.0000000  0  1 27
  -1586372.54348  -1236132.04848  20215334.19749  20215334.38148  20215336.90748
 14 11 14 07 14 53.0000000  0  1 27
  -1608615.55748  -1253464.26448  20211101.50749  20211102.06748  20211103.91048
 14 11 14 07 14 54.0000000  0  1 27
  -1630803.68948  -1270753.72848  20206879.23849  20206879.51948  20206881.82548
 14 11 14 07 14 55.0000000  0  1 27
  -1652937.99948  -1288001.24048  20202666.97049  20202667.53248  20202669.94948
 14 11 14 07 14 56.0000000  0  1 27
  -1675031.96248  -1305217.30848  20198462.88749  20198463.27548  20198465.45648
 14 11 14 07 14 57.0000000  0  1 27
  -1697089.95348  -1322405.36148  20194265.46449  20194265.97948  20194267.82348
 14 11 14 07 14 58.0000000  0  1 27
  -1719114.21448  -1339567.12148  20190074.71349  20190074.42048  20190076.93448
 14 11 14 07 14 59.0000000  0  1 27
  -1741104.77548  -1356702.62148  20185889.83849  20185889.82948  20185892.25748
 14 11 14 07 15 00.0000000  0  8 07 09 10 13 16 23 27 30
 -17609366.80058 -13721580.65358  20212726.19159  20212726.74458  20212726.21358
 -13451796.27459 -10481918.07959  19749824.32259  19749824.87759  19749826.89859
   6133818.38256   4779602.75956  23780226.89858  23780226.09156  23780228.46656
  -5845261.21256  -4554743.29956  22076358.18358  22076358.62856  22076358.82756
 -13167142.68758 -10260112.78757  20607109.51758  20607109.30558  20607109.07957
 -12981822.18958 -10115704.04758  20840371.92959  20840372.04758  20840370.01758
  -1763047.01648  -1373800.47248  20181714.17849  20181714.57048  20181716.82848
  -5224907.00956  -4071349.87356  23369881.74358  23369881.64756  23369884.76756
 14 11 14 07 15 01.0000000  0  1 27
  -1784938.41648  -1390858.71248  20177548.42149  20177548.71248  20177550.82948
 14 11 14 07 15 02.0000000  0  1 27
  -1806792.07048  -1407887.52248  20173389.64049  20173390.01848  20173392.51848
 14 11 14 07 15 03.0000000  0  1 27
  -1828608.50148  -1424887.33848  20169238.20849  20169238.73348  20169240.64548
 14 11 14 07 15 04.0000000  0  1 27
  -1850375.39448  -1441848.56448  20165096.28849  20165096.21748  20165098.68948
 14 11 14 07 15 05.0000000  0  1 27
  -1872090.67448  -1458769.56248  20160963.58449  20160964.12948  20160966.54348
 14 11 14 07 15 06.0000000  0  1 27
  -1893768.51048  -1475661.37248  20156838.66049  20156839.17748  20156841.27148
 14 11 14 07 15 07.0000000  0  1 27
  -1915409.23248  -1492524.27848  20152720.59449  20152721.05848  20152723.08448
 14 11 14 07 15 08.0000000  0  1 27
  -1937000.35848  -1509348.54248  20148611.71649  20148612.10748  20148614.49048
 14 11 14 07 15 09.0000000  0  1 27
  -1958539.91948  -1526132.61348  20144513.00649  20144513.39448  20144515.70948
 14 11 14 07 15 10.0000000  0  8 07 09 10 13 16 23 27 30
 -17430016.41458 -13581827.10658  20246855.45959  20246856.01558  20246855.37958
 -13431307.13359 -10465952.52159  19753723.33359  19753723.88659  19753725.89459
   6410503.48556   4995201.50356  23832878.42958  23832878.47056  23832880.00156
  -5560127.10256  -4332560.88256  22130617.50858  22130618.08756  22130617.95856
 -13174061.40958 -10265503.99057  20605792.81758  20605792.73458  20605792.46757
 -13146998.13258 -10244412.59558  20808940.02759  20808940.22758  20808938.11758
  -1980041.43748  -1542887.03748  20140421.27249  20140421.87248  20140423.96448
  -4974379.03456  -3876133.30556  23417555.68158  23417555.76356  23417558.78856
 14 11 14 07 15 11.0000000  0  1 27
  -2001505.74548  -1559612.46648  20136337.15749  20136337.30048  20136339.59648
 14 11 14 07 15 20.0000000  0  8 07 09 10 13 16 23 27 30
 -17247927.85558 -13439939.92158  20281505.69359  20281506.27358  20281505.76358
 -13407828.73059 -10447657.67259  19758191.19759  19758191.64159  19758193.65859
   6687772.39756   5211255.16456  23885641.00858  23885640.38356  23885642.21356
  -5273687.35156  -4109361.07156  22185125.51858  22185125.55156  22185125.62456
 -13177247.11358 -10267986.36257  20605186.77658  20605186.83158  20605186.28657
 -13310038.75558 -10371457.25658  20777914.49759  20777914.54958  20777912.58358
  -2192626.35948  -1708537.63848  20099967.90349  20099968.21848  20099970.45948
  -4722705.66956  -3680024.18256  23465447.28058  23465447.11756  23465450.21556
 14 11 14 07 15 30.0000000  0  8 07 09 10 13 16 23 27 30
 -17063142.91848 -13295951.66048  20316669.18549  20316669.70548  20316669.20548
 -13381383.22649 -10427050.79849  19763223.63349  19763224.11349  19763226.08249
   6965577.95846   5427727.02946  23938505.78448  23938505.70046  23938506.99646
  -4985987.30646  -3885179.20646  22239872.32948  22239872.24246  22239873.30846
 -13176723.30648 -10267578.20947  20605286.23948  20605286.29348  20605286.07747
 -13470942.66448 -10496836.94148  20747295.48449  20747295.61448  20747293.58048
  -2400752.78548  -1870714.07948  20060362.81349  20060363.12048  20060365.21548
  -4469924.82046  -3483052.10246  23513549.98348  23513551.07646  23513552.52046
 14 11 14 07 15 40.0000000  0  8 07 09 10 13 16 23 27 30
 -16875677.00848 -13149874.33148  20352342.61249  20352343.26548  20352342.76848
 -13351966.65949 -10404128.80949  19768821.43449  19768821.89149  19768823.90149
   7243899.70046   5644601.08946  23991468.37348  23991468.52046  23991469.71546
  -4697045.99146  -3660030.13946  22294856.19648  22294856.56746  22294856.60246
 -13172487.84848 -10264277.84347  20606092.37848  20606092.44648  20606091.98647
 -13629682.09548 -10620530.02248  20717088.37549  20717088.42548  20717086.44448
  -2604370.41248  -2029377.17048  20021615.59549  20021616.09048  20021618.18848
  -4216048.01746  -3285226.02046  23561861.17748  23561862.38946  23561864.52746
 14 11 14 07 15 50.0000000  0  8 07 09 10 13 16 23 27 30
 -16685561.32048 -13001732.24048  20388520.38849  20388521.08548  20388520.58948
 -13319590.98149 -10378901.02849  19774982.31349  19774982.81249  19774984.77349
   7522701.85146   5861849.48146  24044522.65748  24044521.59946  24044524.30846
  -4406897.34646  -3433940.27546  22350069.84648  22350069.76646  22350070.21746
 -13164554.50648 -10258096.01947  20607601.80148  20607601.90448  20607601.43947
 -13786244.88648 -10742527.02048  20687295.45849  20687295.61148  20687293.57148
  -2803440.28548  -2184496.55748  19983733.92849  19983734.22348  19983736.47848
  -3961102.10546  -3086566.86346  23610375.79848  23610375.11346  23610379.05446
 14 11 14 07 16 00.0000000  0  8 07 09 10 13 16 23 27 30
 -16492818.64848 -12851543.15048  20425198.07449  20425198.70048  20425198.26548
 -13284259.99349 -10351370.40049  19781705.52249  19781706.12649  19781708.03249
   7801957.39746   6079451.18446  24097663.42748  24097661.84646  24097664.63046
  -4115567.11946  -3206929.73246  22405508.34948  22405508.78446  22405508.66646
 -13152929.39748 -10249037.49747  20609814.10448  20609814.17948  20609813.77347
 -13940610.54548 -10862811.96848  20657920.67049  20657920.77848  20657918.81548
  -2997915.69648  -2336035.84748  19946726.44449  19946726.83248  19946729.00348
  -3705105.42646  -2887088.94846  23659090.63848  23659091.00146  23659093.11046
 14 11 14 07 16 10.0000000  0  8 07 09 10 13 16 23 27 30
 -16297491.56948 -12699340.23648  20462367.63649  20462368.15848  20462367.87248
 -13245997.47049 -10321555.45849  19788986.65649  19788987.18249  19788989.21149
   8081620.04346   6297370.09046  24150881.50748  24150881.58146  24150882.92546
  -3823099.96146  -2979033.23546  22461163.04248  22461162.59146  22461163.78246
 -13137638.87848 -10237122.80747  20612723.87848  20612723.71648  20612723.54147
 -14092778.21548 -10981384.19548  20628964.21349  20628964.34048  20628962.18648
  -3187770.31048  -2483974.51648  19910598.31049  19910598.72748  19910600.81648
  -3448095.83046  -2686821.73646  23707997.81848  23707997.85846  23708000.65246
 14 11 14 07 16 20.0000000  0  8 07 09 10 13 16 23 27 30
 -16099596.46148 -12545136.26348  20500025.78749  20500026.33748  20500025.99048
 -13204801.12349 -10289454.43149  19796826.05749  19796826.63149  19796828.66449
   8361670.04446   6515590.83846  24204173.59148  24204174.01446  24204175.69746
  -3529514.28946  -2750265.17946  22517030.46148  22517031.15446  22517030.84646
 -13118683.56648 -10222352.44247  20616330.97348  20616330.93248  20616330.60847
 -14242720.76848 -11098222.57048  20600431.11649  20600431.22048  20600429.12748
  -3372952.16848  -2628272.07648  19875359.37049  19875359.80948  19875361.97048
  -3190084.67546  -2485774.09446  23757095.65348  23757095.90546  23757098.69946
 14 11 14 07 16 30.0000000  0  8 07 09 10 13 16 23 27 30
 -15899150.99948 -12388944.99348  20538169.33249  20538169.91248  20538169.41148
 -13160670.22949 -10255066.73249  19805223.88349  19805224.46649  19805226.48149
   8642086.89046   6734097.43046  24257535.26648  24257535.45446  24257536.61946
  -3234829.42746  -2520640.60346  22573107.16948  22573107.33646  22573107.93646
 -13096066.08148 -10204728.42747  20620634.85548  20620634.78948  20620634.62847
 -14390412.34448 -11213306.92948  20572326.43949  20572326.44948  20572324.35048
  -3553411.24448  -2768889.54648  19841019.03049  19841019.46948  19841021.77048
  -2931084.39446  -2283955.68746  23806381.68148  23806382.30946  23806384.28046
 14 11 14 07 16 40.0000000  0  8 07 09 10 13 16 23 27 30
 -15696182.26548 -12230787.54448  20576793.03349  20576793.55848  20576793.18448
 -13113613.56149 -10218399.22249  19814178.49949  19814179.00149  19814181.11649
   8922841.09846   6952866.91146  24310960.77348  24310961.23546  24310961.52546
  -2939073.74846  -2290181.63346  22629387.57148  22629387.82746  22629388.36846
 -13069798.41648 -10184260.12547  20625633.40248  20625633.32548  20625633.32847
 -14535836.43248 -11326624.42748  20544653.08149  20544653.27248  20544651.08748
  -3729107.59748  -2905795.80848  19807585.24549  19807585.56148  19807587.89248
  -2671116.52846  -2081383.34946  23855851.84048  23855851.69746  23855854.98346
 14 11 14 07 16 50.0000000  0  8 07 09 10 13 16 23 27 30
 -15490725.15448 -12070691.09548  20615890.16349  20615890.69248  20615890.35648
 -13063648.00049 -10179465.03149  19823686.65649  19823687.11949  19823689.25349
   9203895.70546   7171870.44646  24364443.58248  24364442.70346  24364445.01546
  -2642283.06246  -2058916.17646  22685864.90048  22685864.59246  22685865.66446
 -13039901.22348 -10160963.60847  20631322.62248  20631322.47748  20631322.35747
 -14678984.34748 -11438168.27448  20517412.99749  20517413.09248  20517410.93348
  -3900009.89748  -3038966.44248  19775063.56049  19775063.91648  19775066.25848
  -2410210.25346  -1878079.77446  23905500.54048  23905501.00146  23905503.30646
 14 11 14 07 17 00.0000000  0  8 07 09 10 13 16 23 27 30
 -15282792.57148 -11908665.71648  20655458.52849  20655458.90848  20655458.63248
 -13010768.70449 -10138260.40549  19833749.32449  19833749.83549  19833751.84149
   9485236.06046   7391096.68946  24417980.63448  24417981.68446  24417982.21746
  -2344470.82146  -1826854.67246  22742536.70548  22742536.55246  22742536.91646
 -13006373.71648 -10134838.28247  20637702.93548  20637702.78448  20637702.29047
 -14819825.44648 -11547914.60448  20490611.79049  20490611.95448  20490609.79648
  -4066065.62748  -3168360.53448  19743464.21949  19743464.59348  19743466.88548
  -2148372.63646  -1674050.48146  23955326.69648  23955326.77146  23955329.52146
 14 11 14 07 17 10.0000000  0  8 07 09 10 13 16 23 27 30
 -15072418.16948 -11744737.61248  20695491.39649  20695491.73348  20695491.59048
 -12954991.69549 -10094797.81649  19844363.30349  19844363.85749  19844365.94149
   9766827.39546   7610518.46946  24471566.21948  24471565.85646  24471567.12946
  -2045670.92046  -1594023.57446  22799396.38148  22799396.53846  22799396.63846
 -12969236.23648 -10105899.99247  20644769.88748  20644769.90148  20644769.54847
 -14958349.91548 -11655855.76148  20464251.48249  20464251.61648  20464249.50248
  -4227243.71248  -3293953.86348  19712793.04049  19712793.44948  19712795.78248
  -1885631.06346  -1469316.79846  24005324.64248  24005324.54146  24005328.10446
 14 11 14 07 17 20.0000000  0  8 07 09 10 13 16 23 27 30
 -14859630.97048 -11578929.41648  20735983.18648  20735983.80748  20735983.63948
 -12896328.80249 -10049086.49349  19855526.55249  19855527.05549  19855529.10049
  10048639.55246   7830112.29046  24525192.96148  24525191.87346  24525193.51846
  -1745912.95746  -1360445.94846  22856438.56948  22856438.96046  22856439.11746
 -12928505.33348 -10074161.63447  20652520.61048  20652520.64448  20652520.41647
 -15094543.34448 -11761980.53848  20438334.77549  20438334.93148  20438332.75048
  -4383509.51948  -3415719.44848  19683056.63249  19683057.00748  19683059.35248
  -1622008.40046  -1263896.58346  24055490.64448  24055490.42946  24055494.27646
 14 11 14 07 17 30.0000000  0  8 07 09 10 13 16 23 27 30
 -14644448.40248 -11411254.69448  20776931.13548  20776931.65348  20776931.55248
 -12834780.34248 -10001126.66649  19867238.75949  19867239.32048  19867241.38849
  10330654.53746   8049864.22046  24578858.90848  24578858.55646  24578859.45446
  -1445214.16846  -1126135.22346  22913659.94148  22913661.18546  22913659.83946
 -12884186.26748 -10039627.29947  20660954.41048  20660954.13748  20660953.84347
 -15228379.84548 -11866268.72848  20412866.57649  20412866.68148  20412864.53748
  -4534817.56848  -3533621.84148  19654263.79949  19654264.12148  19654266.43148
  -1357515.55746  -1057798.27246  24105821.33548  24105823.85946  24105824.78446
 14 11 14 07 17 40.0000000  0  8 07 09 10 13 16 23 27 30
 -14426911.34448 -11241745.30948  20818327.14348  20818327.75548  20818327.52948
 -12770370.40048  -9950937.12349  19879495.64149  19879496.14148  19879498.23249
  10612831.32946   8269742.17746  24632555.37648  24632555.76946  24632556.74446
  -1143614.96546   -891122.85746  22971052.14448  22971052.77746  22971053.24946
 -12836308.28848 -10002319.79447  20670065.20048  20670065.17148  20670065.03047
 -15359856.90648 -11968718.41248  20387847.34449  20387847.47148  20387845.27948
  -4681146.76248  -3647644.60448  19626418.28249  19626418.61448  19626420.85348
  -1092186.77246   -851048.56946  24156312.69748  24156313.00646  24156315.53446
 14 11 14 07 17 50.0000000  0  8 07 09 10 13 16 23 27 30
 -14206966.69248 -11070359.88248  20860181.24848  20860181.78348  20860181.68348
 -12703029.27348  -9898463.53349  19892310.25249  19892310.76548  19892312.82049
  10895223.16646   8489787.70846  24686292.47348  24686292.10346  24686294.10546
   -841061.23946   -655366.70646  23028626.51948  23028626.67146  23028627.50446
 -12784807.17148  -9962189.06647  20679865.53748  20679865.39748  20679865.09047
 -15488878.17248 -12069254.48948  20363295.44449  20363295.57748  20363293.46348
  -4822383.01748  -3757698.85148  19599542.02749  19599542.30048  19599544.58848
   -825961.99246   -643600.70946  24206972.78748  24206971.74546  24206976.23846
 14 11 14 07 18 00.0000000  0  8 07 09 10 13 16 23 27 30
 -13984711.84048 -10897174.30448  20902475.05148  20902475.58548  20902475.29548
 -12632837.98248  -9843769.03749  19905667.25349  19905667.69048  19905669.80249
  11177733.13946   8709925.34546  24740052.74448  24740052.15146  24740053.56446
   -537649.51746   -418942.01246  23086363.47248  23086363.56746  23086363.38846
 -12729769.59948  -9919302.65647  20690338.95448  20690338.75548  20690338.38747
 -15615497.82848 -12167919.17748  20339200.52049  20339200.63048  20339198.48748
  -4958563.60048  -3863813.61548  19573627.53249  19573627.93548  19573630.34848
   -558931.55946   -435525.10446  24257787.49648  24257787.21946  24257790.01246
 14 11 14 07 18 10.0000000  0  8 07 09 10 13 16 23 27 30
 -13760164.03448 -10722202.00348  20945205.00848  20945205.61648  20945205.31948
 -12559797.53148  -9786854.41749  19919566.31549  19919566.86748  19919568.93649
  11460345.04246   8930142.31946  24793832.22748  24793831.12046  24793832.26946
   -233395.55646   -181860.98546  23144261.02348  23144262.01546  23144261.17246
 -12671202.64348  -9873666.08947  20701483.68948  20701483.62948  20701483.31547
 -15739689.91948 -12264692.26248  20315567.55449  20315567.65948  20315565.66448
  -5089646.60348  -3965956.24348  19548683.33549  19548683.71248  19548686.08948
   -291105.38446   -226829.39846  24308753.09248  24308753.80946  24308755.80046
 14 11 14 07 18 20.0000000  0  8 07 09 10 13 16 23 27 30
 -13787937.77348 -10743843.89548  20980158.26748  20980158.87748  20980158.41648
 -12484017.57448  -9727805.11249  19933986.76349  19933987.33548  19933989.35849
  11742934.53746   9150341.89446  24847607.04548  24847607.07646  24847608.56146
     71576.42746     55779.50246  23202295.52348  23202296.52246  23202295.36846
 -12609222.26248  -9825369.69747  20713278.14948  20713278.12048  20713277.77047
 -15861536.95048 -12359638.01748  20292380.89249  20292380.92648  20292378.96448
  -5215699.55448  -4064179.33448  19524696.21149  19524696.70248  19524699.03048
    -22601.54646    -17605.65046  24359847.14248  24359848.43046  24359850.97346
 14 11 14 07 18 30.0000000  0  8 07 09 10 13 16 23 27 30
 -13612495.25248 -10607135.45148  21031916.08448  21031916.70148  21031916.24048
 -12405412.02948  -9666554.05349  19948944.98349  19948945.47948  19948947.56249
  12025573.72946   9370580.16346  24901391.90848  24901391.26746  24901392.29046
    377338.86646    294035.90846  23260480.22748  23260480.85346  23260479.65246
 -12543748.88048  -9774351.48747  20725737.31848  20725737.23748  20725736.91047
 -15980925.60648 -12452668.17048  20269661.97849  20269662.04748  20269660.01948
  -5336595.05248  -4158383.64348  19501690.67649  19501690.99748  19501693.34748
    246657.91946    192206.93446  24411085.96548  24411085.99546  24411088.65846
 14 11 14 07 18 40.0000000  0  8 07 09 10 13 16 23 27 30
 -13381276.73048 -10426965.18848  21075915.44148  21075916.12748  21075915.69948
 -12323938.46448  -9603068.17249  19964448.86349  19964449.38548  19964451.49849
  12308291.39746   9590879.66946  24955190.82448  24955190.96746  24955190.75546
    683920.80946    532930.92746  23318820.97548  23318820.41546  23318820.29646
 -12474746.87148  -9720583.70347  20738867.84448  20738867.95248  20738867.80047
 -16097786.15748 -12543728.36348  20247424.14649  20247424.27448  20247422.35048
  -5452250.23948  -4248504.58848  19479682.21249  19479682.59148  19479684.94648
    516707.90146    402635.48746  24462475.20948  24462473.02646  24462478.15646
 14 11 14 07 18 50.0000000  0  8 07 09 10 13 16 23 27 30
 -13147885.41648 -10245101.84148  21120328.34848  21120328.93348  21120328.57148
 -12239674.10248  -9537407.64749  19980483.84349  19980484.36148  19980486.52749
  12590997.52746   9811169.03546  25008988.10248  25008985.76646  25008990.12746
    991232.35046    772394.46346  23377300.16048  23377300.34446  23377300.34946
 -12402300.39848  -9664131.92447  20752654.10548  20752654.23148  20752653.92747
 -16212168.31748 -12632857.34848  20225657.92149  20225658.03648  20225656.12948
  -5562702.73648  -4334571.49348  19458663.88749  19458664.24048  19458666.52748
    787463.92146    613615.04746  24513997.95148  24513997.09046  24513999.51946
 14 11 14 07 19 00.0000000  0  8 07 09 10 13 16 23 27 30
 -12912422.18648 -10061624.00948  21165135.54348  21165136.28248  21165135.67548
 -12152705.04948  -9469639.56849  19997033.58849  19997034.01648  19997036.16149
  12873593.58446  10031373.74446  25062764.69948  25062763.85646  25062765.98746
   1299175.22846   1012349.91446  23435900.14848  23435901.02746  23435899.49846
 -12326502.91448  -9605068.95847  20767077.97648  20767077.95948  20767077.59747
 -16324130.65148 -12720100.74748  20204352.21749  20204352.32848  20204350.43748
  -5667999.97648  -4416621.31148  19438626.55849  19438626.82948  19438629.11048
   1058833.07146    825071.62046  24565637.91148  24565636.95846  24565640.43846
 14 11 14 07 19 10.0000000  0  8 07 09 10 13 16 23 27 30
 -12674778.16848  -9876446.86348  21210357.79848  21210358.32148  21210357.90848
 -12062907.81448  -9399667.71449  20014121.40849  20014121.95548  20014124.07049
  13156191.28746  10251579.71745  25116541.33748  25116541.77546  25116542.41445
   1607860.80646   1252884.14246  23494640.72548  23494641.49746  23494641.89146
 -12247238.35048  -9543304.37847  20782161.28248  20782161.68848  20782161.22047
 -16433522.05648 -12805340.82848  20183535.68149  20183535.90348  20183534.00548
  -5767980.72048  -4494528.40748  19419600.83949  19419601.13548  19419603.46748
   1330932.36946   1037097.01446  24617416.91048  24617416.62046  24617418.98046
 14 11 14 07 19 20.0000000  0  8 07 09 10 13 16 23 27 30
 -12435025.66248  -9689626.74448  21255981.27748  21255981.84048  21255981.34048
 -11970340.38148  -9327537.27249  20031736.47849  20031736.96748  20031739.06849
  13438721.43546  10471733.00745  25170304.76248  25170303.67146  25170307.34445
   1917219.88646   1493943.12046  23553509.97848  23553510.74046  23553509.58146
 -12164572.52048  -9478889.47047  20797892.17348  20797892.31648  20797891.96947
 -16540372.76248 -12888601.14748  20163202.76649  20163202.82148  20163201.00048
  -5862666.22948  -4568309.35148  19401582.75849  19401583.15548  19401585.39148
   1603697.80746   1249641.51346  24669321.96448  24669323.31546  24669324.65746
 14 11 14 07 19 30.0000000  0  8 07 09 10 13 16 23 27 30
 -12193165.81748  -9501164.53948  21302005.59548  21302006.33048  21302005.78248
 -11874989.99848  -9253238.28949  20049881.00049  20049881.51248  20049883.63049
  13721186.02146  10691835.22345  25224055.78148  25224055.69946  25224058.35545
   2227254.29646   1735528.27646  23612507.42648  23612506.60646  23612507.34246
 -12078500.67148  -9411820.51047  20814271.32948  20814271.26748  20814271.07647
 -16644642.30848 -12969850.16348  20143360.88349  20143361.04348  20143359.17748
  -5952007.91048  -4637926.25448  19384581.66949  19384582.04648  19384584.29348
   1877136.51846   1462710.98045  24721356.03648  24721357.03046  24721358.47045
 14 11 14 07 19 40.0000000  0  8 07 09 10 13 16 23 27 30
 -11949340.31648  -9311170.65848  21348404.01448  21348404.72848  21348404.40048
 -11776984.50448  -9176870.39449  20068530.91049  20068531.33948  20068533.53849
  14003447.05346  10911778.87945  25277768.73648  25277769.69046  25277769.83245
   2537825.94846   1977531.20246  23671607.89048  23671608.15346  23671607.30646
 -11989158.86648  -9342203.53547  20831272.36448  20831272.27648  20831272.09547
 -16746430.54248 -13049165.69448  20123991.22549  20123991.37248  20123989.64448
  -6036098.83748  -4703451.66848  19368579.74649  19368580.05148  19368582.34848
   2151115.40546   1676202.44646  24773492.27448  24773493.70146  24773495.78046
 14 11 14 07 19 50.0000000  0  8 07 09 10 13 16 23 27 30
 -11703572.28048  -9119663.10848  21395172.28348  21395172.58548  21395172.35548
 -11676333.63548  -9098441.16249  20087684.11349  20087684.62848  20087686.72749
  14285485.22946  11131548.86945  25331438.20148  25331437.99646  25331439.28045
   2848915.34946   2219938.55146  23730805.67848  23730805.42146  23730806.34746
 -11896565.17448  -9270052.63447  20848892.34348  20848892.52448  20848892.43547
 -16845719.42448 -13126533.68348  20105097.16949  20105097.35948  20105095.48148
  -6114915.00148  -4764866.87448  19353581.41849  19353581.79748  19353584.17448
   2425619.79746   1890102.08746  24825728.71848  24825727.95846  24825732.51546
 14 11 14 07 20 00.0000000  0  8 07 09 10 13 16 23 27 30
 -11455814.74048  -8926605.31048  21442318.83048  21442319.43248  21442318.91848
 -11572977.14648  -9017903.65749  20107352.21349  20107352.64748  20107354.80549
  14567351.73246  11351183.95345  25385075.80948  25385074.88346  25385077.61945
   3160572.92746   2462788.54946  23790112.26248  23790112.19546  23790112.47646
 -11800667.98848  -9195327.56247  20867141.00948  20867141.26648  20867140.97047
 -16942420.77848 -13201885.41348  20086695.51649  20086695.66848  20086693.92748
  -6188363.43448  -4822099.43848  19339604.65849  19339605.03048  19339607.41748
   2700705.49546   2104454.40946  24878076.31048  24878076.15446  24878078.27846
 14 11 14 07 20 10.0000000  0  8 07 09 10 13 16 23 27 30
 -11206096.94548  -8732020.03148  21489838.42548  21489839.24248  21489838.72848
 -11466931.23148  -8935270.50149  20127531.99749  20127532.60648  20127534.76549
  14849021.81246  11570667.11045  25438676.39948  25438676.62646  25438677.54445
   3472773.37946   2706061.56845  23849522.37448  23849521.83046  23849523.55045
 -11701492.35647  -9118047.86847  20886013.64248  20886013.75347  20886013.33747
 -17036522.92548 -13275211.79248  20068788.62249  20068788.66248  20068786.90548
  -6256428.72148  -4875137.34348  19326652.22449  19326652.65648  19326655.03448
   2976352.14946   2319243.07046  24930529.85648  24930529.02046  24930532.96046
 14 11 14 07 20 20.0000000  0  8 07 09 10 13 16 23 27 30
 -10954385.40948  -8535881.18448  21537737.54948  21537738.29848  21537737.87648
 -11358149.74448  -8850505.72249  20148232.44149  20148233.02348  20148235.23049
  15130533.66046  11790025.09445  25492246.36948  25492247.70346  25492246.79545
   3785554.46546   2949789.24746  23909041.87948  23909043.52446  23909041.79546
 -11599001.15747  -9038184.60747  20905516.94148  20905517.00347  20905516.66347
 -17127951.75848 -13346455.06248  20051390.19649  20051390.31948  20051388.52348
  -6319034.15948  -4923920.81248  19314738.91549  19314739.26348  19314741.62748
   3252602.02846   2534502.82546  24983098.53448  24983097.58546  24983102.14746
 14 11 14 07 20 30.0000000  0  8 07 09 10 13 16 23 27 30
 -10700816.92848  -8338295.36848  21585989.99248  21585990.67048  21585990.29548
 -11246757.20148  -8763706.36049  20169429.80749  20169430.31248  20169432.58849
  15411755.21046  12009159.49145  25545761.37348  25545759.68446  25545761.99945
   4098783.59846   3193862.93945  23968647.51948  23968649.68646  23968645.26845
 -11493328.25548  -8955842.10347  20925625.99348  20925626.05748  20925625.54447
 -17216803.79348 -13415690.43648  20034482.22149  20034482.39548  20034480.55148
  -6376274.84548  -4968523.95948  19303846.36949  19303846.76948  19303849.12048
   3529327.45246   2750131.90646  25035758.00548  25035758.35546  25035760.40346
 14 11 14 07 20 40.0000000  0  8 07 09 10 13 16 23 27 30
 -10445416.72948  -8139282.25148  21634591.01148  21634591.77448  21634591.53448
 -11132766.66248  -8674882.59149  20191121.53849  20191122.02848  20191124.26049
  15692666.45746  12228051.36745  25599216.82348  25599217.39746  25599217.49945
   4412440.02346   3438261.08545  24028334.20147  24028334.59646  24028333.92145
 -11384496.05447  -8871037.80747  20946336.06648  20946335.95447  20946335.77447
 -17303064.16348 -13482906.33848  20018067.45549  20018067.67348  20018065.83648
  -6428135.52248  -5008934.89348  19293977.55949  19293977.96748  19293980.37948
   3806512.15246   2966119.95946  25088504.18348  25088505.49046  25088506.26646
 14 11 14 07 20 50.0000000  0  8 07 09 10 13 16 23 27 30
 -10188155.66648  -7938819.10048  21683546.34948  21683546.82948  21683546.59848
 -11016137.04248  -8584002.39849  20213315.42049  20213315.89348  20213318.15249
  15973301.94446  12446727.38445  25652619.70148  25652621.03046  25652621.01645
   4726557.68046   3683031.77344  24088108.75847  24088109.14146  24088111.11144
 -11272473.13447  -8783747.23547  20967653.14848  20967653.35347  20967653.13347
 -17386663.98148 -13548049.07548  20002159.02649  20002159.15248  20002157.38048
  -6474547.98548  -5045100.46448  19285145.57949  19285146.03548  19285148.44748
   4084194.48446   3182495.78946  25141345.00248  25141345.63046  25141348.78046
 14 11 14 07 21 00.0000000  0  8 07 09 10 13 16 23 27 30
  -9929062.71748  -7736928.50648  21732850.05948  21732850.57448  21732850.28448
 -10896885.77348  -8491079.36049  20236008.19449  20236008.70148  20236011.01449
  16253638.21146  12665171.26445  25705965.99948  25705966.21246  25705966.52845
   5041112.67146   3928124.64745  24147969.17947  24147969.65446  24147970.86845
 -11157286.77047  -8693991.64346  20989572.39148  20989572.42547  20989572.42746
 -17467592.87248 -13611110.56848  19986758.81249  19986758.89348  19986757.08948
  -6515503.64448  -5077013.97748  19277351.89849  19277352.45048  19277354.80748
   4362354.79946   3399244.00246  25194277.82048  25194277.79146  25194280.92446
 14 11 14 07 21 10.0000000  0  8 07 09 10 13 16 23 27 30
  -9668208.34347  -7533665.37648  21782488.89648  21782489.48147  21782489.37148
 -10775071.95848  -8396159.53249  20259188.65849  20259189.17348  20259191.38249
  16533610.71246  12883333.87344  25759242.15947  25759241.54046  25759243.29744
   5356039.01646   4173533.33245  24207895.37247  24207897.55446  24207895.07745
 -11039006.24047  -8601825.01146  21012080.56948  21012080.81947  21012080.69346
 -17545882.07348 -13672115.16248  19971860.81949  19971860.98848  19971859.21748
  -6551036.81648  -5104702.17548  19270590.22449  19270590.70648  19270593.07148
   4640931.82646   3616316.92246  25247288.96748  25247289.05546  25247292.36546
 14 11 14 07 21 20.0000000  0  8 07 09 10 13 16 23 27 30
  -9405708.60347  -7329120.14148  21832441.03748  21832441.45347  21832441.50748
 -10650800.52648  -8299324.68249  20282836.71149  20282837.18148  20282839.49549
  16813109.45746  13101125.96945  25812429.06747  25812429.62046  25812431.29845
   5671226.10645   4419148.09745  24267871.86447  24267871.81845  24267871.11745
 -10917746.32447  -8507336.78646  21035155.68348  21035155.50247  21035155.49446
 -17621608.76448 -13731122.99548  19957450.51449  19957450.66848  19957448.94948
  -6581228.78648  -5128228.40248  19264844.99449  19264845.28548  19264847.73148
   4919819.03746   3833630.65446  25300359.81548  25300360.57746  25300361.33746
 14 11 14 07 21 30.0000000  0  8 07 09 10 13 16 23 27 30
  -9141480.83047  -7123228.39648  21882721.79248  21882722.45547  21882722.31748
 -10523978.00248  -8200501.96749  20306970.17149  20306970.77048  20306973.04449
  17092223.22946  13318613.10345  25865543.42347  25865542.45746  25865545.76145
   5986762.28146   4665016.44245  24327917.59547  24327919.65346  24327917.88945
 -10793423.85047  -8410462.14346  21058813.46748  21058813.53047  21058813.24046
 -17694651.64948 -13788039.55148  19943550.97149  19943551.12048  19943549.37048
  -6605963.67648  -5147502.35748  19260138.03049  19260138.39948  19260140.87648
   5199108.57546   4051259.85246  25353506.34748  25353506.14946  25353508.75246
 14 11 14 07 21 40.0000000  0  8 07 09 10 13 16 23 27 30
  -8875536.81547  -6915999.30947  21933329.44448  21933329.89647  21933329.73247
 -10394605.59248  -8099692.32249  20331589.01649  20331589.60348  20331591.79149
  17370946.92346  13535832.88145  25918580.72447  25918578.65446  25918576.83345
   6302640.24445   4911156.20645  24388028.66447  24388026.28445  24388028.13845
 -10666050.51147  -8311210.21046  21083051.78848  21083051.77147  21083051.55146
 -17764984.34148 -13842844.26248  19930167.10849  19930167.27648  19930165.53048
  -6625221.46848  -5162508.44048  19256473.34849  19256473.86048  19256476.24948
   5478798.19246   4269200.56046  25406730.24948  25406731.11946  25406733.04046
 14 11 14 07 21 50.0000000  0  7 07 09 10 16 23 27 30
  -8607889.55147  -6707443.01647  21984260.87248  21984261.70847  21984261.31447
 -10262686.03048  -7996897.88349  20356692.42849  20356693.06148  20356695.27449
  17649274.24346  13752731.46744  25971545.87147  25971546.55646  25971552.68744
 -10535639.70547  -8209591.42546  21107868.08248  21107867.94847  21107867.78746
 -17832582.06949 -13895517.82948  19917303.62849  19917303.84049  19917302.16548
  -6638984.91948  -5173233.21848  19253854.35949  19253854.76448  19253857.20248
   5758884.47846   4487447.56346  25460028.57448  25460028.32546  25460031.49946
 14 11 14 07 22 00.0000000  0  7 07 09 10 16 23 27 30
  -8338638.01147  -6497636.64247  22035497.96748  22035498.40347  22035498.23947
 -10128308.46948  -7892188.12648  20382263.73149  20382264.12748  20382266.51148
  17927112.65646  13969230.51445  26024418.76947  26024416.30046  26024419.77645
 -10402291.29347  -8105683.60046  21133243.46348  21133243.52347  21133243.53946
 -17897506.49149 -13946108.30748  19904949.01649  19904949.11249  19904947.44648
  -6647324.38548  -5179731.51848  19252267.39849  19252267.75048  19252270.16148
   6039277.77446   4705936.76746  25513385.49848  25513386.88546  25513389.31146
 14 11 14 07 22 01.0000000  0  1 11
         0.82256         0.19652  24565605.30057  24565617.61456  24565619.25452
 14 11 14 07 22 01.0000000  0  1 11
         0.82246         0.19642  24565605.30047  24565617.61446  24565619.25442
 14 11 14 07 22 01.0000000  0  1 11
         0.82246         0.19642  24565605.30047  24565617.61446  24565619.25442
 14 11 14 07 22 01.0000000  0  1 11
         0.82246         0.19642  24565605.30047  24565617.61446  24565619.25442
 14 11 14 07 22 05.0000000  0  1 11
    -73675.49546    -57406.71643  24537562.47947  24537563.53746  24537572.64843
 14 11 14 07 22 06.0000000  0  1 11
   -110503.41546    -86102.93942  24530554.57147  24530553.53046  24530568.28642
 14 11 14 07 22 07.0000000  0  1 11
   -147317.94646   -114791.01743  24523549.22947  24523550.81146  24523561.88343
 14 11 14 07 22 08.0000000  0  1 11
   -184131.48846   -143477.70845  24516544.02047  24516545.29746  24516549.92145
 14 11 14 07 22 10.0000000  0  7 07 09 10 16 23 27 30
  -8067801.25457  -6286595.03557  22087036.48258  22087037.20057  22087036.65257
  -9991482.10158  -7785570.20258  20408300.93159  20408301.37758  20408303.70958
  18204450.55956  14185337.85854  26077192.77157  26077194.63556  26077197.31854
 -10266025.50857  -7999502.47556  21159173.76158  21159174.18857  21159173.71056
 -17959739.50159 -13994601.57858  19893106.42159  19893106.54159  19893104.82458
  -6650231.59558  -5181996.89158  19251714.31659  19251714.56958  19251717.01158
   6319968.90856   4924657.32955  25566799.11358  25566800.06356  25566800.99255
 14 11 14 07 22 19.0000000  0  1 19
         0.38258         0.34658  19237294.40759  19237294.60258  19237294.46058
 14 11 14 07 22 20.0000000  0  8 07 09 10 16 19 23 27 30
  -7795348.22357  -6074293.99057  22138882.65758  22138883.22457  22138883.01657
  -9852166.41158  -7677012.54958  20434811.84659  20434812.39558  20434814.63258
  18481325.98456  14401095.80855  26129880.11357  26129879.10356  26129883.33655
 -10126812.92457  -7891025.15656  21185665.19058  21185665.34157  21185665.15556
         0.09148         0.85948  19234035.84249  19234035.34748  19234050.33548
 -18019213.32259 -14040944.83658  19881788.96259  19881789.09959  19881787.44858
  -6647649.73158  -5179985.06558  19252205.53159  19252205.95758  19252208.33958
   6600998.60456   5143640.46955  25620276.88257  25620276.78556  25620279.30355
 14 11 14 07 22 21.0000000  0  1 19
         0.86548         0.61342  19230787.87049  19230787.52448  19230815.63642
 14 11 14 07 22 22.0000000  0  1 19
    -17021.81448    -13264.98242  19227548.37849  19227548.25548  19227592.69642
 14 11 14 07 22 23.0000000  0  1 19
    -34001.54048    -26492.82248  19224317.53049  19224316.93548  19224312.42848
 14 11 14 07 22 24.0000000  0  1 19
    -50924.94448    -39680.10848  19221096.95149  19221096.68648  19221095.82748
 14 11 14 07 22 25.0000000  0  1 19
    -67790.04848    -52821.74848  19217887.97849  19217887.37048  19217886.64448
 14 11 14 07 22 26.0000000  0  1 19
    -84608.46148    -65927.00248  19214687.28949  19214686.78648  19214686.08248
 14 11 14 07 22 27.0000000  0  1 19
   -101382.96448    -78998.04548  19211495.38049  19211494.79748  19211494.14048
 14 11 14 07 22 28.0000000  0  1 19
   -118099.62648    -92024.01848  19208314.13849  19208313.68448  19208312.86048
 14 11 14 07 22 29.0000000  0  1 19
   -134758.71448   -105005.12948  19205144.04349  19205143.53748  19205142.91548
 14 11 14 07 22 30.0000000  0  8 07 09 10 16 19 23 27 30
  -7521374.81357  -5860808.24157  22191018.00558  22191018.49257  22191018.22557
  -9710448.03358  -7566582.67458  20461779.96359  20461780.47058  20461782.74858
  18757650.78156  14616392.55355  26182464.21557  26182460.97956  26182470.90955
  -9984751.03557  -7780327.61056  21212698.74858  21212698.81957  21212698.83556
   -151371.86548   -117950.43748  19201982.65449  19201982.24248  19201981.75648
 -18075987.53659 -14085184.50958  19870985.16859  19870985.30759  19870983.67258
  -6639650.39958  -5173751.83858  19253727.74059  19253728.10558  19253730.56058
   6882280.68356   5362821.75855  25673804.31657  25673805.01556  25673807.81155
 14 11 14 07 22 31.0000000  0  1 19
   -167941.02748   -130861.47348  19198829.74149  19198829.28248  19198828.57448
 14 11 14 07 22 32.0000000  0  1 19
   -184454.13348   -143728.83548  19195687.35449  19195686.83348  19195685.85548
 14 11 14 07 22 33.0000000  0  1 19
   -200908.58648   -156550.48648  19192556.16249  19192555.73848  19192555.12048
 14 11 14 07 22 34.0000000  0  1 19
   -217316.44048   -169335.82648  19189433.68849  19189433.27148  19189432.73748
 14 11 14 07 22 35.0000000  0  1 19
   -233680.79248   -182087.26948  19186319.58849  19186319.18548  19186318.77448
 14 11 14 07 22 36.0000000  0  1 19
   -249988.16048   -194794.31448  19183216.58749  19183216.19548  19183215.45548
 14 11 14 07 22 37.0000000  0  1 19
   -266235.99848   -207454.96748  19180124.84049  19180124.17548  19180123.63948
 14 11 14 07 22 38.0000000  0  1 19
   -282437.27248   -220079.33548  19177041.63149  19177041.33948  19177040.72448
 14 11 14 07 22 39.0000000  0  1 19
   -298594.47548   -232669.36248  19173967.04549  19173966.82348  19173965.92048
 14 11 14 07 22 40.0000000  0  8 07 09 10 16 19 23 27 30
  -7245875.57357  -5646133.53157  22243443.73258  22243444.16257  22243444.15357
  -9566312.53858  -7454269.32958  20489208.09559  20489208.56058  20489210.86758
  19033437.19156  14831265.22254  26234945.41457  26234942.93056  26234948.86454
  -9839836.78457  -7667407.43156  21240275.10258  21240275.01657  21240275.01356
   -314694.40748   -245214.76848  19170903.53649  19170903.14448  19170902.30848
 -18130020.69559 -14127288.28358  19860702.99759  19860703.13459  19860701.50058
  -6626205.40658  -5163275.23558  19256286.30659  19256286.67558  19256289.01458
   7163830.35756   5582215.69155  25727380.81457  25727380.89456  25727383.04455
 14 11 14 07 22 41.0000000  0  1 19
   -330735.22948   -257714.11448  19167851.23849  19167850.59348  19167849.80748
 14 11 14 07 22 42.0000000  0  1 19
   -346729.57548   -270177.23648  19164807.48349  19164806.93948  19164806.31748
 14 11 14 07 22 43.0000000  0  1 19
   -362678.40948   -282604.89748  19161772.44949  19161772.08448  19161771.40948
 14 11 14 07 22 44.0000000  0  1 19
   -378569.47348   -294987.55248  19158748.54549  19158748.01448  19158747.19748
 14 11 14 07 22 45.0000000  0  1 19
   -394401.44048   -307324.15348  19155735.95149  19155735.23448  19155734.53448
 14 11 14 07 22 46.0000000  0  1 19
   -410186.76848   -319624.40248  19152731.86549  19152731.38448  19152730.77348
 14 11 14 07 22 47.0000000  0  1 19
   -425927.85948   -331890.18948  19149736.46949  19149736.03948  19149735.01948
 14 11 14 07 22 48.0000000  0  1 19
   -441611.03848   -344110.85348  19146752.02849  19146751.52248  19146750.66248
 14 11 14 07 22 49.0000000  0  1 19
   -457236.08348   -356286.21348  19143778.63949  19143778.15448  19143777.34848
 14 11 14 07 22 50.0000000  0  8 07 09 10 16 19 23 27 30
  -6968873.94457  -5430288.13057  22296155.48858  22296155.80257  22296155.71257
  -9419774.68358  -7340084.01958  20517093.39359  20517093.90158  20517096.18458
  19308670.19156  15045734.48954  26287321.16857  26287322.08456  26287322.91554
  -9692096.29857  -7552284.98456  21268389.14658  21268388.87057  21268389.14556
   -472814.56148   -368425.28348  19140814.15049  19140813.91048  19140813.01848
 -18181300.70359 -14167246.75458  19850944.81259  19850944.93159  19850943.31058
  -6607316.99758  -5148557.01258  19259880.68259  19259881.11358  19259883.39058
   7445634.12656   5801797.79255  25781006.34757  25781005.82456  25781010.52255
 14 11 14 07 22 51.0000000  0  1 19
   -488348.72448   -380529.82648  19137858.41749  19137857.89748  19137856.98648
 14 11 14 07 22 52.0000000  0  1 19
   -503823.82948   -392588.35148  19134913.34549  19134912.89848  19134912.19648
 14 11 14 07 22 53.0000000  0  1 19
   -519239.84448   -404600.83348  19131979.88649  19131979.44048  19131978.67748
 14 11 14 07 22 54.0000000  0  1 19
   -534608.85248   -416576.68148  19129055.32649  19129054.58048  19129054.09048
 14 11 14 07 22 55.0000000  0  1 19
   -549932.75948   -428517.39248  19126139.15649  19126138.41648  19126137.91648
 14 11 14 07 22 56.0000000  0  1 19
   -565199.04048   -440413.19748  19123234.12249  19123233.38948  19123232.78748
 14 11 14 07 22 57.0000000  0  1 19
   -580404.86548   -452261.89248  19120340.44849  19120339.95748  19120339.31848
 14 11 14 07 22 58.0000000  0  1 19
   -595562.98548   -464073.41248  19117455.98849  19117455.67048  19117454.78948
 14 11 14 07 22 59.0000000  0  1 19
   -610676.71848   -475850.34748  19114580.02149  19114579.57848  19114578.66448
 14 11 14 07 23 00.0000000  0  8 07 09 10 16 19 23 27 30
  -6690403.66257  -5213298.32557  22349146.48058  22349147.12857  22349146.87157
  -9270859.65758  -7224046.36358  20545430.97559  20545431.50658  20545433.84458
  19583323.82655  15259739.91154  26339586.82957  26339585.36655  26339589.27054
  -9541566.26257  -7434988.87156  21297034.09358  21297034.05557  21297034.00856
   -625732.36848   -487582.02848  19111715.01249  19111714.27148  19111713.63748
 -18229826.08359 -14205058.75558  19841710.73659  19841710.87359  19841709.30858
  -6582999.08858  -5129608.00558  19264508.20759  19264508.57058  19264510.93258
   7727667.45756   6021562.99055  25834673.27657  25834674.52956  25834674.33955
 14 11 14 07 23 01.0000000  0  1 19
   -640728.25648   -499267.13448  19108861.20649  19108860.80048  19108860.28948
 14 11 14 07 23 02.0000000  0  1 19
   -655676.88848   -510915.41448  19106016.50449  19106016.32448  19106015.43148
 14 11 14 07 23 03.0000000  0  1 19
   -670580.28848   -522528.45548  19103180.99149  19103180.36048  19103179.36148
 14 11 14 07 23 04.0000000  0  1 19
   -685425.55248   -534096.19848  19100355.95949  19100355.14248  19100354.47448
 14 11 14 07 23 05.0000000  0  1 19
