     2              OBSERVATION DATA    GPS                 RINEX VERSION / TYPE
BJrnx               Jason               2008-10-24 21:31:53 PGM / RUN BY / DATE
RECNUM              RECTYPE             RECVERS             REC # / TYPE / VERS
ANTNUM              ANTTYPE                                 ANT # / TYPE
        0.0000        0.0000        0.0000                  APPROX POSITION XYZ
        0.0000        0.0000        0.0000                  ANTENNA: DELTA H/E/N
     1     1     0                                          WAVELENGTH FACT L1/2
     5    L1    L2    C1    P1    P2                        # / TYPES OF OBSERV
    10                                                      INTERVAL
  2008    10    24    19    03   50.000000      GPS         TIME OF FIRST OBS
SNR is mapped to signal strength [0,1,2-9]                  COMMENT
 SNR: >500 >100  >50  >10   >5   >3  >1  >0  bad  n/a       COMMENT
 sig:    9    8    7    6    5    4   3   2    1    0       COMMENT
                                                            END OF HEADER
 08 10 24 19 03 50.0000000  0  2 11 28
 -15350994.81358 -11961813.92658  19127556.67359  19127556.69258  19127556.76658
  -4010898.62958  -3125374.86558  20505554.76759  20505554.69658  20505555.19458
 08 10 24 19 04 00.0000000  0  5 11 17 19 22 28
 -15339867.60248 -11953143.37148  19129674.11749  19129674.08748  19129674.20848
  16485277.88957  12845672.32557  22837801.84858  22837802.05257  22837802.37657
  -2233028.37256  -1740022.10056  22494051.38058  22494050.86856  22494050.65356
  -3340771.73556  -2603184.97556  23319572.04058  23319571.38556  23319571.74556
  -3769550.93448  -2937311.72348  20551481.73449  20551481.60848  20551482.21848
 08 10 24 19 04 10.0000000  0  6 09 11 17 19 22 28
     -7680.48356     -5984.18656  23243330.56357  23243330.03456  23243331.32856
 -15324814.89248 -11941413.98848  19132538.61049  19132538.51248  19132538.57448
  16770923.48147  13068253.31247  22892158.29048  22892158.50747  22892159.10547
  -2462764.62346  -1919037.37246  22450334.14748  22450333.67246  22450331.82746
  -3540032.69246  -2758453.26046  23281653.77548  23281654.11346  23281653.92846
  -3524375.65748  -2746266.05548  20598137.05349  20598136.84748  20598137.43548
 08 10 24 19 04 20.0000000  0  6 09 11 17 19 22 28
    -24221.12946    -18871.93846  23240186.14347  23240187.70946  23240188.51646
 -15305731.55648 -11926543.85548  19136169.93649  19136169.97048  19136170.05848
  17058569.30647  13292392.91447  22946895.50748  22946895.84647  22946896.15347
  -2690266.76546  -2096311.76546  22407041.66648  22407040.60146  22407040.34646
  -3736306.95746  -2911394.25146  23244304.29048  23244302.88646  23244303.43546
  -3275309.98048  -2552188.90248  20645532.65849  20645532.55848  20645533.11448
 08 10 24 19 04 30.0000000  0  6 09 11 17 19 22 28
    -37571.46246    -29238.44146  23237642.30948  23237641.89346  23237644.61546
 -15283396.53648 -11909139.94548  19140420.25849  19140420.17848  19140420.25248
  17347411.60347  13517464.83047  23001860.16948  23001860.56947  23001860.99847
  -2916290.84946  -2272434.43746  22364030.50848  22364030.18246  22364029.16046
  -3930350.00946  -3062596.68446  23207379.36748  23207377.81246  23207378.26746
  -3023174.90948  -2355720.01748  20693512.39149  20693512.26248  20693512.68748
 08 10 24 19 04 40.0000000  0  6 09 11 17 19 22 28
    -47798.00946    -37205.47646  23235696.67448  23235696.23646  23235698.67146
 -15257884.25048 -11889260.23948  19145274.94949  19145275.04648  19145275.12648
  17637351.88247  13743392.32347  23057034.07548  23057034.37947  23057034.58347
  -3140888.03546  -2447445.23146  22321291.67848  22321290.91246  22321288.86846
  -4122212.71446  -3212098.02646  23170868.76748  23170868.67646  23170866.90046
  -2768086.66048  -2156949.95048  20742054.10749  20742053.98448  20742054.35048
 08 10 24 19 04 50.0000000  0  6 09 11 17 19 22 28
    -54841.55946    -42694.09946  23234356.41648  23234354.79846  23234356.96146
 -15229143.54948 -11866864.88948  19150744.12949  19150744.20048  19150744.29048
  17928417.90147  13970197.01247  23112422.17748  23112422.33247  23112422.99347
  -3363983.20846  -2621285.64146  22278837.98148  22278837.05646  22278835.82846
  -4311820.09946  -3359844.04046  23134787.80648  23134787.61546  23134787.10546
  -2510035.34548  -1955871.00348  20791159.57049  20791159.42048  20791159.87348
 08 10 24 19 05 00.0000000  0  6 09 11 17 19 22 28
    -58683.62746    -45687.66946  23233624.83148  23233624.05546  23233627.48946
 -15197163.71048 -11841945.53348  19156829.67649  19156829.73648  19156829.87348
  18220597.42247  14197869.35947  23168021.92648  23168022.52047  23168022.71847
  -3585541.32346  -2793928.31046  22236676.48148  22236675.99546  22236674.55046
  -4499137.22346  -3505805.45546  23099142.46948  23099141.39746  23099141.01746
  -2249051.29248  -1752506.80248  20840823.22949  20840823.07548  20840823.49348
 08 10 24 19 05 10.0000000  0  6 09 11 17 19 22 28
    -59319.80246    -46184.60446  23233504.10348  23233503.50346  23233505.49546
 -15161947.95948 -11814504.68848  19163531.06649  19163531.01848  19163531.21048
  18513864.91147  14426389.48747  23223829.10248  23223829.63647  23223829.62547
  -3805540.74646  -2965356.45646  22194812.05548  22194811.99746  22194811.36546
  -4684142.87246  -3649965.73046  23063937.06348  23063936.43046  23063935.13546
  -1985178.46548  -1546891.61248  20891036.46549  20891036.37148  20891036.98048
 08 10 24 19 05 20.0000000  0  6 09 11 17 19 22 28
    -56746.25146    -44178.29446  23233992.94648  23233993.42846  23233992.88146
 -15123499.95948 -11784545.20648  19170847.41749  19170847.40748  19170847.70248
  18808195.07747  14655737.67247  23279838.30748  23279838.66147  23279838.59947
  -4023959.77946  -3135553.09146  22153248.49448  22153247.43246  22153247.44646
  -4866816.34346  -3792308.67546  23029175.78248  23029173.55446  23029175.02846
  -1718460.72148  -1339059.60448  20941791.19949  20941791.07848  20941791.47148
 08 10 24 19 05 30.0000000  0  6 09 11 17 19 22 28
    -50959.38746    -39671.30446  23235094.92648  23235095.63246  23235096.60446
 -15081823.28848 -11752069.87948  19178778.20849  19178778.29348  19178778.43448
  19103563.25046  14885894.69047  23336044.83748  23336045.32446  23336045.41647
  -4240776.08646  -3304500.88246  22111989.20848  22111989.18546  22111988.81146
  -5047136.15046  -3932817.62646  22994861.81548  22994860.45246  22994860.62946
  -1448941.52248  -1129044.64048  20993078.93549  20993078.81448  20993079.33648
 08 10 24 19 05 40.0000000  0  6 09 11 17 19 22 28
    -41956.96146    -32653.48046  23236807.80148  23236808.04946  23236808.68946
 -15036922.85348 -11717082.52648  19187322.57049  19187322.58148  19187322.70448
  19399943.99546  15116840.71547  23392444.35748  23392444.73246  23392444.82447
  -4455968.36546  -3472183.17946  22071040.02148  22071039.10146  22071038.40846
  -5225082.26546  -4071476.95746  22960999.72048  22960999.84946  22960998.70346
  -1176665.26848   -916881.32448  21044891.43749  21044891.25348  21044891.76148
 08 10 24 19 05 50.0000000  0  6 09 11 17 19 22 28
    -29735.48446    -23128.94646  23239133.58448  23239134.45646  23239134.58146
 -14988802.19348 -11679585.90648  19196479.57949  19196479.61648  19196479.81648
  19697313.72346  15348557.39547  23449031.83348  23449032.41346  23449032.23447
  -4669513.48646  -3638581.97246  22030403.51148  22030403.20446  22030402.46546
  -5400632.96846  -4208269.73046  22927593.88048  22927594.06246  22927592.01746
   -901674.73748   -702602.98448  21097220.51349  21097220.27148  21097220.75348
 08 10 24 19 06 00.0000000  0  6 09 11 17 19 22 28
    -14294.95046    -11097.31346  23242072.31548  23242072.41946  23242074.25746
 -14937467.89548 -11639585.15448  19206248.17549  19206248.28248  19206248.41748
  19995646.55146  15581024.53147  23505802.69448  23505802.79346  23505803.39547
  -4881390.77046  -3803681.17646  21990084.83548  21990084.42146  21990083.56946
  -5573769.46146  -4343181.25546  22894646.67048  22894645.95546  22894646.02246
   -624015.02048   -486244.76448  21150057.33749  21150057.12148  21150057.73348
 08 10 24 19 06 10.0000000  0  6 09 11 17 19 22 28
      4365.23046      3442.87146  23245622.37748  23245622.21646  23245621.45146
 -14882926.20948 -11597085.13848  19216627.18549  19216627.21248  19216627.31048
  20294917.56646  15814222.71847  23562752.09548  23562751.98946  23562752.84547
  -5091578.73746  -3967464.02646  21950087.38748  21950086.98146  21950086.11446
  -5744472.43546  -4476196.57546  22862162.87248  22862162.52046  22862161.86646
   -343730.39748   -267841.16548  21203393.71949  21203393.55248  21203394.00248
 08 10 24 19 06 20.0000000  0  6 09 11 17 19 22 28
     26243.73446     20488.25846  23249785.71048  23249785.24046  23249786.86346
 -14825184.75748 -11552091.79748  19227614.97849  19227615.02748  19227615.16748
  20595100.94946  16048131.85447  23619875.23248  23619875.56446  23619875.78747
  -5300056.96046  -4129914.59046  21910415.04748  21910414.74646  21910414.12446
  -5912723.78246  -4607301.50046  22830145.86048  22830146.16646  22830144.99246
    -60866.17448    -47427.48548  21257221.00949  21257220.86048  21257221.18748
 08 10 24 19 06 30.0000000  0  6 09 11 17 19 22 28
     51340.27646     40045.27846  23254561.49048  23254561.74846  23254561.44546
 -14764250.04448 -11504610.20448  19239210.46449  19239210.53348  19239210.70448
  20896172.62146  16282733.16747  23677167.18448  23677167.43846  23677167.86147
  -5506803.47146  -4291015.77246  21871072.68648  21871071.67146  21871071.35146
  -6078504.14546  -4736480.98346  22798599.01248  22798599.92546  22798597.25646
    224533.83548    174962.13848  21311530.79848  21311530.63348  21311531.11148
 08 10 24 19 06 40.0000000  0  6 09 11 17 19 22 28
     79651.39846     62098.69946  23259948.98748  23259948.75946  23259952.57046
 -14700131.67248 -11454647.83648  19251411.81449  19251411.79148  19251411.99448
  21198105.95246  16518005.87947  23734623.28748  23734623.00446  23734623.45947
  -5711798.87947  -4450752.46647  21832063.48848  21832062.76847  21832062.10447
  -6241797.02246  -4863722.20746  22767525.45348  22767525.78346  22767523.32846
    512423.17648    399291.49448  21366314.31048  21366314.21048  21366314.71148
 08 10 24 19 06 50.0000000  0  7 09 11 17 19 20 22 28
    111174.65646     86663.23546  23265947.57748  23265948.41746  23265948.87646
 -14632837.92348 -11402211.15048  19264217.36949  19264217.43848  19264217.57148
  21500876.29746  16753930.82947  23792238.23648  23792238.47346  23792239.17747
  -5915022.08647  -4609108.21747  21793391.25148  21793390.36247  21793390.21347
     -7542.30456     -5876.56056  23752210.36558  23752210.59556  23752211.38956
  -6402584.47146  -4989011.12446  22736928.24948  22736928.91746  22736927.61646
    802757.34148    625525.90748  21421563.10248  21421562.89648  21421563.44248
 08 10 24 19 07 00.0000000  0  7 09 11 17 19 20 22 28
    145905.73646    113731.91846  23272555.95448  23272553.12946  23272558.22146
 -14562378.74648 -11347307.89648  19277625.35549  19277625.30148  19277625.51748
  21804457.82946  16990487.86347  23850008.00248  23850008.26046  23850008.66647
  -6116453.26347  -4766067.58947  21755060.48048  21755059.51047  21755059.05047
    -32840.49646    -25589.48046  23747341.14048  23747341.75746  23747343.49046
  -6560850.07946  -5112334.99346  22706811.34548  22706812.38246  22706810.79246
   1095490.45548    853629.63248  21477268.40448  21477268.16248  21477268.75148
 08 10 24 19 07 10.0000000  0  7 09 11 17 19 20 22 28
    183841.37146    143294.22946  23279775.99548  23279773.31346  23279778.73046
 -14488762.85849 -11289944.86848  19291633.95949  19291633.92949  19291634.06448
  22108826.56246  17227658.30547  23907927.64348  23907927.68146  23907927.97847
  -6316070.98047  -4921613.86547  21717074.27948  21717073.43647  21717073.16347
    -56543.19246    -44059.10246  23742830.19448  23742831.09446  23742832.77146
  -6716576.14946  -5233679.96446  22677177.73348  22677178.24746  22677176.57646
   1390578.47848   1083568.35248  21533421.71248  21533421.48948  21533422.11548
 08 10 24 19 07 20.0000000  0  7 09 11 17 19 20 22 28
    224975.99646    175346.17546  23287602.84447  23287602.59846  23287604.59446
 -14412001.01949 -11230130.44948  19306241.32649  19306241.29549  19306241.42448
  22413957.08646  17465422.36647  23965991.91348  23965992.17346  23965992.69247
  -6513855.31447  -5075731.53147  21679437.52548  21679435.80447  21679436.10047
    -78877.65246    -61462.56846  23738580.32848  23738579.00446  23738581.89246
  -6869746.88546  -5353033.79946  22648030.54948  22648029.84946  22648029.19246
   1687975.90648   1315306.60548  21590014.64548  21590014.55248  21590014.87148
 08 10 24 19 07 30.0000000  0  8 09 11 14 17 19 20 22 28
    269305.41146    209890.99946  23296039.46747  23296041.74346  23296039.40746
 -14332102.59349 -11167871.93448  19321445.47249  19321445.39049  19321445.52048
    -92526.32256    -72097.87756  22125885.77458  22125884.51856  22125886.38156
  22719825.89746  17703761.69247  24024196.95448  24024196.51946  24024197.66447
  -6709784.69747  -5228403.78847  21642153.04048  21642152.80047  21642151.73347
    -99831.11546    -77789.96446  23734593.42948  23734592.54846  23734593.50746
  -7020344.95446  -5470382.96346  22619372.37448  22619372.12646  22619371.56346
   1987639.01048   1548810.32648  21647038.50248  21647038.56248  21647038.95048
 08 10 24 19 07 40.0000000  0  8 09 11 14 17 19 20 22 28
    316824.86146    246923.19546  23305081.17447  23305083.20146  23305080.29846
 -14249077.21649 -11103176.83848  19337244.57649  19337244.67049  19337244.85648
   -411679.45346   -320788.70946  22064479.43548  22064478.61346  22064478.86046
  23026409.77246  17942658.20047  24082537.78248  24082537.84446  24082538.14947
  -6903837.47947  -5379613.75647  21605226.18148  21605225.50447  21605224.84447
   -119390.76146    -93031.21646  23730871.41048  23730870.25146  23730872.75846
  -7168353.42346  -5585714.21846  22591207.48548  22591207.17246  22591206.08146
   2289524.46048   1784045.73948  21704485.49748  21704485.37448  21704485.87948
 08 10 24 19 07 50.0000000  0  8 09 11 14 17 19 20 22 28
    367528.52646    286430.28346  23314730.50647  23314729.31546  23314732.64846
 -14162935.29849 -11036053.26648  19353636.89349  19353636.90349  19353637.05448
   -725097.39946   -565010.50246  22004837.55648  22004837.08446  22004838.39646
  23333685.39946  18182093.77546  24141009.89848  24141010.48846  24141011.18346
  -7095992.36247  -5529344.84447  21568660.24048  21568659.09947  21568659.38447
   -137544.20946   -107176.78546  23727416.48148  23727415.06646  23727417.60746
  -7313755.74846  -5699014.73546  22563538.52148  22563538.83046  22563537.73746
   2593588.54648   2020978.79948  21762346.98748  21762346.73848  21762347.25048
 08 10 24 19 08 00.0000000  0  8 09 11 14 17 19 20 22 28
    421410.96946    328417.84546  23324982.98047  23324982.22146  23324984.05946
 -14073686.75249 -10966508.94348  19370620.27949  19370620.35649  19370620.52748
  -1035620.72546   -806976.73046  21945747.31048  21945746.55546  21945748.17546
  23641630.49146  18422050.98046  24199610.35748  24199610.87146  24199611.07746
  -7286227.12947  -5677579.74147  21532459.91248  21532458.97247  21532459.03647
   -154278.34246   -120216.37446  23724232.61248  23724231.79146  23724233.51946
  -7456534.93146  -5810271.23646  22536368.30648  22536368.78746  22536367.53346
   2899788.58548   2259576.23148  21820614.75348  21820614.79348  21820615.26848
 08 10 24 19 08 10.0000000  0  8 09 11 14 17 19 20 22 28
    478465.42546    372875.81646  23335840.68147  23335842.07146  23335842.30646
 -13981342.67649 -10894552.52148  19388192.89249  19388192.81549  19388193.07148
  -1343194.11846  -1046644.33346  21887217.84948  21887217.23146  21887218.78646
  23950221.95346  18662511.84746  24258333.61748  24258334.02946  24258334.25646
  -7474520.60347  -5824301.94047  21496628.72448  21496628.21747  21496627.80347
   -169580.89346   -132140.46846  23721320.06848  23721320.93746  23721321.45846
  -7596675.25346  -5919471.47746  22509700.28148  22509700.33046  22509699.73446
   3208081.22248   2499804.26048  21879280.91048  21879281.02348  21879281.48048
 08 10 24 19 08 20.0000000  0  8 09 11 14 17 19 20 22 28
    538685.36846    419797.55046  23347300.72947  23347300.00246  23347301.47446
 -13885913.57949 -10820192.18648  19406352.37649  19406352.40849  19406352.56348
  -1647761.29246  -1283969.41046  21829260.39848  21829260.64446  21829261.00746
  24259437.98346  18903459.42246  24317175.33448  24317175.34646  24317176.28346
  -7660850.55347  -5969494.11447  21461171.27248  21461170.62047  21461170.02647
   -183438.62946   -142938.65846  23718682.92248  23718683.42446  23718683.95146
  -7734160.13346  -6026602.56546  22483537.86948  22483538.18546  22483537.17646
   3518424.33048   2741630.05948  21938337.50348  21938337.21348  21938337.63548
 08 10 24 19 08 30.0000000  0  8 09 11 14 17 19 20 22 28
    602064.08146    469184.54446  23359360.41248  23359361.11146  23359363.03146
 -13787409.96049 -10743436.12148  19425097.02949  19425097.03849  19425097.26348
  -1949265.87146  -1518908.06746  21771886.35348  21771886.31446  21771886.85946
  24569257.23746  19144877.01346  24376131.79348  24376132.12846  24376132.26746
  -7845194.35647  -6113138.65047  21426091.71748  21426090.96847  21426091.04447
   -195838.09446   -152600.62946  23716323.84748  23716323.42046  23716325.51746
  -7868973.11046  -6131651.63246  22457884.09948  22457884.65246  22457882.89846
   3830776.22548   2985021.14248  21997775.91248  21997775.63248  21997776.07148
 08 10 24 19 08 40.0000000  0  8 09 11 14 17 19 20 22 28
    668594.18646    521024.96046  23372021.81448  23372022.11946  23372024.11546
 -13685842.83849 -10664292.91148  19444424.63749  19444424.64649  19444424.73548
  -2247651.43646  -1751416.32246  21715105.41248  21715105.34246  21715106.28246
  24879658.50646  19386748.14846  24435199.61448  24435200.58246  24435199.75546
  -8027529.60347  -6255218.07147  21391394.80348  21391393.90347  21391393.69947
   -206766.22346   -161116.02246  23714243.90648  23714243.22446  23714245.65046
  -8001098.12046  -6234606.19046  22432741.64048  22432741.35046  22432740.48546
   4145095.27148   3229945.07848  22057588.69048  22057588.60748  22057589.24948
 08 10 24 19 08 50.0000000  0  8 09 11 14 17 19 20 22 28
    738265.58446    575316.46646  23385278.83248  23385280.70646  23385280.49346
 -13581225.70249 -10582773.06548  19464332.55349  19464332.59949  19464332.76448
  -2542863.73646  -1981451.88846  21658928.42148  21658928.05846  21658928.87346
  25190618.55646  19629054.65846  24494372.99148  24494372.68046  24494373.82146
  -8207836.16147  -6395716.70347  21357083.51048  21357082.65747  21357082.46647
   -216211.94746   -168476.35346  23712447.20748  23712447.06246  23712448.41946
  -8130521.63946  -6335455.67346  22408112.79548  22408113.44746  22408112.26946
   4461337.97447   3476367.96948  22117767.77548  22117767.66347  22117768.08048
 08 10 24 19 09 00.0000000  0  8 09 11 14 17 19 20 22 28
    811068.10946    632045.75946  23399133.18348  23399133.49446  23399133.12746
 -13473571.93349 -10498887.01348  19484818.48649  19484818.44949  19484818.56148
  -2834848.15847  -2208972.22246  21603365.78448  21603365.78447  21603366.23946
  25502114.87246  19871779.04246  24553648.50348  24553648.50146  24553649.42746
  -8386093.42348  -6534618.47947  21323162.20148  21323161.58448  21323161.28647
   -224163.82746   -174672.64446  23710933.98048  23710933.48246  23710933.09646
  -8257230.07946  -6434189.54446  22384000.87448  22384001.25946  22384000.23046
   4779461.47047   3724256.40447  22178304.81048  22178304.41847  22178305.16247
 08 10 24 19 09 10.0000000  0  8 09 11 14 17 19 20 22 28
    886990.76946    691207.30346  23413580.20448  23413581.89346  23413583.62446
 -13362895.47049 -10412645.61648  19505879.48249  19505879.43349  19505879.59448
  -3123550.38447  -2433935.01546  21548427.45248  21548427.37647  21548427.99046
  25814124.87746  20114903.72346  24613022.55048  24613023.04646  24613022.61346
  -8562281.04748  -6671907.54947  21289634.87748  21289634.16848  21289633.65747
   -230610.83246   -179696.39846  23709707.13848  23709706.51146  23709706.35646
  -8381210.20146  -6530797.43846  22360408.61948  22360408.02446  22360407.28346
   5099422.87447   3973576.97747  22239191.34448  22239191.16947  22239191.71147
 08 10 24 19 09 20.0000000  0  8 09 11 14 17 19 20 22 28
    966021.70446    752790.21046  23428619.68348  23428620.31846  23428621.15546
 -13249210.91849 -10324060.25348  19527512.86949  19527512.90849  19527513.06048
  -3408916.63647  -2656298.32646  21494124.06248  21494124.48447  21494124.63946
  26126625.74346  20358410.90046  24672489.10248  24672489.29946  24672490.08146
  -8736379.21648  -6807568.47247  21256505.06648  21256504.28348  21256503.91947
   -235542.33146   -183537.02846  23708768.13748  23708767.80446  23708770.08946
  -8502449.58046  -6625269.66946  22337337.61748  22337337.44046  22337336.70846
   5421179.11747   4224296.12747  22300419.44248  22300419.48347  22300420.08847
 08 10 24 19 09 30.0000000  0  8 09 11 14 17 19 20 22 28
   1048148.05646    816783.39946  23444248.02748  23444245.94946  23444248.59846
 -13132533.60549 -10233142.86948  19549715.89049  19549715.81049  19549715.99948
  -3690893.55047  -2876020.62046  21440465.73448  21440465.51947  21440466.28746
  26439594.55146  20602282.69946  24732044.75448  24732044.37846  24732045.43546
  -8908368.37948  -6941586.01647  21223776.63048  21223775.89248  21223775.28847
   -238948.17646   -186190.91546  23708120.19048  23708118.60046  23708122.03146
  -8620936.54946  -6717597.19846  22314789.83748  22314789.59346  22314789.23346
   5744687.01647   4476380.20247  22361980.96948  22361980.54647  22361981.59447
 08 10 24 19 09 40.0000000  0  8 09 11 14 17 19 20 22 28
   1133357.44546    883181.08246  23460462.65048  23460463.08246  23460461.74946
 -13012878.26049 -10139904.94148  19572485.50349  19572485.55549  19572485.64148
  -3969427.09847  -3093059.75947  21387462.27448  21387462.17447  21387463.19847
  26753009.45046  20846502.11946  24791686.18148  24791686.61246  24791687.43746
  -9078228.22148  -7073944.34447  21191453.52448  21191452.62048  21191452.20147
   -240817.43046   -187647.53446  23707764.81048  23707763.62846  23707765.24846
  -8736659.05246  -6807770.58446  22292769.23248  22292769.25446  22292767.98746
   6069904.48547   4729796.40647  22423867.91548  22423867.59447  22423868.15347
 08 10 24 19 09 50.0000000  0  8 09 11 14 17 19 20 22 28
   1221634.53346    951967.11846  23477261.41948  23477261.75946  23477262.43946
 -12890262.32649 -10044360.06048  19595818.52149  19595818.59049  19595818.69448
  -4244465.86547  -3307375.70647  21335124.57748  21335124.33847  21335125.14347
  27066846.25246  21091050.25946  24851407.52348  24851406.73246  24851408.20746
  -9245940.97048  -7204629.61647  21159539.01748  21159537.78948  21159537.41547
   -241141.88746   -187900.32246  23707702.64548  23707703.24346  23707704.08846
  -8849607.54746  -6895782.41946  22271275.78548  22271275.57846  22271274.32846
   6396787.24747   4984510.24647  22486071.92548  22486071.39747  22486071.82447
 08 10 24 19 10 00.0000000  0  8 09 11 14 17 19 20 22 28
   1312965.08946   1023134.60046  23494640.60348  23494641.30546  23494641.87546
 -12764701.65349  -9946520.58048  19619711.86849  19619711.99349  19619712.06248
  -4515956.76547  -3518927.06947  21283461.37448  21283461.19247  21283461.61647
  27381082.95246  21335910.04746  24911204.61948  24911205.36146  24911205.12446
  -9411487.08148  -7333626.59947  21128036.43248  21128035.57748  21128035.10547
   -239911.19046   -186941.38146  23707936.89948  23707935.52946  23707937.63046
  -8959771.17046  -6981624.21946  22250312.15948  22250312.05846  22250311.16446
   6725293.17347   5240488.88647  22548584.11848  22548583.95047  22548584.55647
 08 10 24 19 10 10.0000000  0  8 09 11 14 17 19 20 22 28
   1407334.43546   1096663.66446  23512598.68348  23512599.91046  23512602.11646
 -12636212.66849  -9846399.29948  19644162.59249  19644162.63549  19644162.79648
  -4783847.04547  -3727672.75647  21232483.69048  21232483.42747  21232484.08047
  27695697.55346  21581064.25546  24971073.06448  24971076.01746  24971073.88346
  -9574847.29548  -7460920.28347  21096950.05148  21096949.32048  21096948.67547
   -237115.57746   -184762.96446  23708469.18748  23708467.61646  23708469.02746
  -9067139.66046  -7065287.97346  22229880.61348  22229880.25546  22229879.60946
   7055380.25847   5497699.60647  22611397.65248  22611397.43047  22611398.20647
 08 10 24 19 10 20.0000000  0  8 09 11 14 17 19 20 22 28
   1504726.57346   1172551.58046  23531131.73047  23531129.35246  23531132.98946
 -12504812.86049  -9744009.84448  19669167.21649  19669167.19349  19669167.30748
  -5048085.13147  -3933572.57447  21182200.66448  21182200.73047  21182201.15347
  28010667.28846  21826495.19446  25031010.01648  25031009.29846  25031010.94246
  -9736003.17448  -7586496.31147  21066283.08648  21066282.13948  21066281.94847
   -232745.98846   -181358.11746  23709300.79048  23709300.08546  23709301.70746
  -9171703.81846  -7146766.56246  22209982.60148  22209982.67846  22209981.60146
   7387005.80447   5756109.12547  22674504.12148  22674503.74347  22674504.30147
 08 10 24 19 10 30.0000000  0  8 09 11 14 17 19 20 22 28
   1605125.18846   1250780.35646  23550237.68947  23550235.87846  23550239.13846
 -12370519.55749  -9639365.71848  19694722.29049  19694722.38449  19694722.43348
  -5308619.13147  -4136586.09747  21132622.87148  21132622.60747  21132623.31047
  28325970.13646  22072185.73746  25091010.74048  25091012.33346  25091012.28946
  -9894936.00148  -7710340.08947  21036039.15748  21036038.23348  21036038.07547
   -226793.25646   -176720.75146  23710435.11748  23710433.75846  23710438.10346
  -9273454.44946  -7226052.77646  22190620.16148  22190620.11846  22190619.27646
   7720127.81247   6015684.71047  22737894.67948  22737895.01347  22737895.63947
 08 10 24 19 10 40.0000000  0  8 09 11 14 17 19 20 22 28
   1708513.65846   1331328.15546  23569913.51647  23569912.48746  23569911.90146
 -12233350.36849  -9532480.64348  19720824.74549  19720824.76449  19720824.85148
  -5565397.58047  -4336673.22347  21083759.47248  21083759.14247  21083759.98247
  28641584.28346  22318118.81846  25151070.11048  25151068.70646  25151071.49246
 -10051627.20348  -7832437.14747  21006221.84948  21006220.98148  21006220.86847
   -219248.26346   -170802.86446  23711866.63048  23711864.94046  23711871.30746
  -9372382.73746  -7303139.76146  22171794.99248  22171794.87746  22171793.72046
   8054704.67347   6276393.94747  22801562.78748  22801562.69547  22801563.29947
 08 10 24 19 10 50.0000000  0  8 09 11 14 17 19 20 22 28
   1814873.81346   1414208.41246  23590147.88547  23590147.94546  23590149.13146
 -12093324.11449  -9423369.28248  19747470.91649  19747470.93649  19747471.03048
  -5818370.22647  -4533794.78947  21035620.33748  21035620.34947  21035620.98247
  28957486.94246  22564276.74746  25211184.27448  25211184.65246  25211184.52846
 -10206059.21948  -7952773.80247  20976834.49148  20976833.49848  20976833.28047
   -210102.87146   -163676.81946  23713609.10048  23713608.10946  23713610.01146
  -9468481.31147  -7378021.78646  22153507.89948  22153507.53547  22153506.60046
   8390694.02747   6538203.83247  22865499.44948  22865498.82047  22865499.86647
 08 10 24 19 11 00.0000000  0  7 11 14 17 19 20 22 28
 -11950460.23949  -9312046.79148  19774657.00749  19774657.01149  19774657.11148
  -6067487.40947  -4727912.09247  20988215.01648  20988214.76847  20988215.77247
  29273655.48946  22810641.41146  25271348.68148  25271349.19446  25271349.48746
 -10358214.85748  -8071336.65047  20947880.13848  20947879.47448  20947878.97147
   -199349.56246   -155297.95746  23715655.98948  23715655.06346  23715656.94646
  -9561743.34346  -7450693.51046  22135760.60448  22135760.45146  22135759.81746
   8728053.50646   6801081.33947  22929696.96948  22929696.87946  22929697.30147
 08 10 24 19 11 10.0000000  0  7 11 14 17 19 20 22 28
 -11804778.78549  -9198528.78348  19802379.27949  19802379.29049  19802379.32848
  -6312700.37747  -4918987.14647  20941552.41248  20941552.10447  20941553.19647
  29590066.83246  23057195.14146  25331559.93948  25331559.95446  25331561.11646
 -10508077.53948  -8188112.78447  20919362.21248  20919361.51248  20919361.23547
   -186981.15146   -145660.34046  23718009.48148  23718007.82846  23718009.59146
  -9652162.90647  -7521150.32647  22118554.48548  22118554.53447  22118553.23247
   9066740.50046   7064993.27547  22994146.72148  22994146.63846  22994147.55447
 08 10 24 19 11 20.0000000  0  7 11 14 17 19 20 22 28
 -11656298.96548  -9082830.23248  19830634.09349  19830634.10548  19830634.11048
  -6553959.67847  -5106981.43747  20895642.41548  20895642.13147  20895643.15547
  29906699.33546  23303921.75246  25391813.34248  25391812.74846  25391813.67946
 -10655629.64448  -8303088.46747  20891283.93848  20891283.21848  20891282.83847
   -172989.71646   -134757.00146  23720671.56348  23720671.20146  23720671.60146
  -9739733.37847  -7589387.07147  22101890.31048  22101890.44147  22101889.67347
   9406713.86146   7329907.57747  23058841.63748  23058841.37846  23058841.88347
 08 10 24 19 11 30.0000000  0  7 11 14 17 19 20 22 28
 -11505043.00448  -8964968.45248  19859417.11649  19859417.12448  19859417.18448
  -6791218.90547  -5291858.77847  20850493.47648  20850493.33547  20850494.02047
  30223528.73346  23550802.82046  25452104.00948  25452103.88746  25452105.04246
 -10800856.49248  -8416252.26547  20863648.18648  20863647.46248  20863647.04747
   -157369.89646   -122585.73346  23723644.40948  23723642.86246  23723644.72746
  -9824451.36447  -7655401.10847  22085769.04348  22085768.88847  22085768.25347
   9747930.03446   7595790.29647  23123772.53248  23123772.73946  23123773.10847
 08 10 24 19 11 40.0000000  0  7 11 14 17 19 20 22 28
 -11351032.92348  -8844960.60748  19888724.26649  19888724.27448  19888724.31648
  -7024431.67847  -5473583.03347  20806114.61748  20806114.49847  20806115.15947
  30540531.35546  23797814.86146  25512427.98548  25512429.23146  25512428.16746
 -10943743.16848  -8527592.55847  20836457.70948  20836456.97448  20836456.68347
   -140116.39246   -109141.49546  23726926.63248  23726926.13646  23726927.11346
  -9906313.33347  -7719189.67847  22070191.21148  22070190.86147  22070190.08947
  10090346.12046   7862608.02346  23188932.21848  23188932.48246  23188932.98146
 08 10 24 19 11 50.0000000  0  7 11 14 17 19 20 22 28
 -11194293.58848  -8722826.06948  19918550.79549  19918550.81048  19918550.90048
  -7253554.81847  -5652120.56447  20762513.87048  20762513.73747  20762514.54347
  30857681.06246  24044944.45246  25572779.39448  25572778.22646  25572778.70046
 -11084277.45748  -8637099.81747  20809714.95348  20809714.20148  20809713.77047
   -121226.45346    -94423.05046  23730522.03948  23730523.16946  23730523.06546
  -9985318.76447  -7780752.36947  22055156.95048  22055157.00447  22055156.27247
  10433916.83946   8130325.45146  23254311.67548  23254311.66246  23254312.44346
 08 10 24 19 12 00.0000000  0  7 11 14 17 19 20 22 28
 -11034849.07148  -8598583.59848  19948892.08049  19948892.07948  19948892.16548
  -7478544.55947  -5827437.26747  20719699.91448  20719699.51447  20719700.44047
  31174953.04246  24292169.40046  25633154.41148  25633152.34146  25633154.64646
 -11222446.27148  -8744763.85247  20783422.30048  20783421.54848  20783421.35947
   -100696.50646    -78426.01346  23734428.72448  23734428.45346  23734429.93846
 -10061466.66747  -7840088.43047  22040666.74348  22040666.42147  22040665.94447
  10778598.28046   8398908.38946  23319902.41648  23319902.30346  23319902.83546
 08 10 24 19 12 10.0000000  0  7 11 14 17 19 20 22 28
 -10872722.67048  -8472251.34648  19979743.66949  19979743.70648  19979743.91248
  -7699356.71248  -5999498.70547  20677680.63048  20677680.61048  20677681.34847
  31492323.57146  24539471.05246  25693547.96848  25693548.86146  25693547.25046
 -11358235.68448  -8850573.80748  20757582.50848  20757581.66248  20757581.33948
    -78521.96246    -61146.66646  23738648.07348  23738647.39346  23738651.40346
 -10134755.35147  -7897196.51147  22026720.29248  22026719.83647  22026719.37647
  11124347.76346   8668323.56946  23385696.15148  23385696.26346  23385696.98146
 08 10 24 19 12 20.0000000  0  7 11 14 17 19 20 22 28
 -10707936.70548  -8343846.70948  20011101.37149  20011101.41148  20011101.59348
  -7915946.47048  -6168269.95847  20636465.14048  20636464.93648  20636465.85547
  31809770.24446  24786830.84346  25753955.43048  25753957.91746  25753955.72446
 -11491630.75648  -8954518.03648  20732198.20648  20732197.47048  20732197.35448
    -54697.70146    -42582.39546  23743182.05548  23743180.41646  23743182.91946
 -10205182.44647  -7952074.77347  22013318.37248  22013318.18547  22013317.35547
  11471124.16246   8938538.95246  23451685.88448  23451685.36246  23451686.43446
 08 10 24 19 12 30.0000000  0  7 11 14 17 19 20 22 28
 -10540514.06148  -8213387.51648  20042960.81749  20042960.88248  20042961.05748
  -8128269.81048  -6333716.73947  20596061.16948  20596061.08948  20596061.79147
  32127270.53046  25034233.54846  25814373.51748  25814374.44046  25814374.59246
 -11622617.11848  -9056585.35348  20707272.52648  20707271.58348  20707271.22048
    -29218.87446    -22728.75946  23748030.43948  23748031.13046  23748032.63846
 -10272746.47547  -8004722.08947  22000461.48448  22000462.29847  22000460.66947
  11818886.30546   9209522.41946  23517862.57348  23517862.25546  23517863.09146
 08 10 24 19 12 40.0000000  0  7 11 14 17 19 20 22 28
 -10370477.33848  -8080891.38248  20075317.76349  20075317.84248  20075317.98648
  -8336282.99348  -6495804.94547  20556477.61148  20556477.55848  20556478.57647
  32444802.59246  25281661.94146  25874798.00248  25874798.73646  25874797.49546
 -11751180.06748  -9156764.28248  20682807.72448  20682807.11248  20682806.54048
     -2080.06146     -1581.82346  23753195.26248  23753193.73546  23753196.43946
 -10337445.69347  -8055137.08447  21988149.26448  21988149.02647  21988148.68547
  12167593.72046   9481242.47646  23584219.32348  23584219.60446  23584220.02446
 08 10 24 19 12 50.0000000  0  7 11 14 17 19 20 22 28
 -10197845.95148  -7946373.42648  20108168.43149  20108168.53348  20108168.73848
  -8539939.45548  -6654498.31047  20517723.15248  20517722.79848  20517723.93747
  32762348.00846  25529100.56146  25935225.66948  25935226.88246  25935225.59946
 -11877301.70448  -9255040.89648  20658807.67048  20658807.04948  20658806.51348
     26727.30346     20865.55346  23758676.78548  23758676.85246  23758675.83446
 -10399275.44447  -8103316.13747  21976383.76948  21976383.97247  21976383.08147
  12517209.59946   9753670.40446  23650749.43148  23650748.55846  23650749.78346
 08 10 24 19 13 00.0000000  0  7 11 14 17 19 20 22 28
 -10023099.86048  -7810207.65448  20141421.59549  20141421.62348  20141421.80948
  -8739653.72648  -6810119.82848  20479718.67048  20479718.43348  20479719.45548
  33079428.30546  25776177.99646  25995564.79448  25995564.44146  25995564.12346
 -12001424.74948  -9351760.16648  20635187.90348  20635187.07848  20635186.69448
     56750.93746     44257.41546  23764390.24448  23764389.19546  23764390.89546
 -10458691.97347  -8149614.76447  21965077.20648  21965077.43647  21965076.20047
  12867237.03446  10026419.05846  23717357.62548  23717356.99646  23717357.43146
 08 10 24 19 13 10.0000000  0  7 11 14 17 19 20 22 28
  -9846727.49448  -7672774.65148  20174984.03549  20174984.09748  20174984.35948
  -8935849.34148  -6962999.54448  20442384.02348  20442383.76848  20442384.82348
  33395556.82546  26022511.87246  26055721.56548  26055722.43646  26055719.29846
 -12124000.37448  -9447273.65848  20611862.45148  20611861.59648  20611861.50348
     87530.33646     68237.66746  23770247.29048  23770246.97946  23770250.16646
 -10516160.41347  -8194395.38247  21954141.53948  21954141.49547  21954140.38947
  13217171.33946  10299095.11646  23783947.54648  23783947.22646  23783947.69546
 08 10 24 19 13 20.0000000  0  7 11 14 17 19 20 22 28
  -9667849.51648  -7533389.23148  20209023.44449  20209023.51448  20209023.63248
  -9127582.54148  -7112402.05148  20405898.38848  20405898.16648  20405899.18548
  33711615.15246  26268791.33246  26115864.99748  26115866.06146  26115866.02246
 -12244111.92148  -9540867.09048  20589005.89148  20589005.27348  20589005.04448
    119972.78246     93518.32746  23776421.51748  23776419.33346  23776422.14746
 -10570777.89447  -8236954.50047  21943747.73148  21943748.01547  21943747.15747
  13567875.88546  10572371.37846  23850684.57548  23850684.85146  23850684.13746
 08 10 24 19 13 30.0000000  0  7 11 14 17 19 20 22 28
  -9486456.62248  -7392044.13248  20243541.31849  20243541.37248  20243541.59748
  -9314780.22848  -7258270.39248  20370275.95848  20370275.79248  20370276.58048
  34027614.96846  26515025.36846  26175998.14448  26175997.33246  26175996.94446
 -12361712.87148  -9632504.21348  20566627.35248  20566626.55848  20566626.13148
    154115.46346    120123.03646  23782917.47648  23782918.88346  23782918.88546
 -10622512.21447  -8277266.96847  21933903.33348  21933903.25847  21933902.10547
  13919344.53846  10846243.07046  23917566.47248  23917566.28946  23917567.25146
 08 10 24 19 13 40.0000000  0  7 11 14 17 19 20 22 28
  -9302564.38548  -7248751.48948  20278534.82949  20278534.93648  20278535.18748
  -9497394.79248  -7400567.46948  20335525.46148  20335525.16748  20335526.20748
  34343543.47646  26761206.73046  26236116.88048  26236118.06646  26236118.02546
 -12476781.74748  -9722168.28648  20544730.50348  20544729.58048  20544729.39548
    189970.66246    148061.88046  23789740.84148  23789739.04446  23789740.94746
 -10671356.29447  -8315327.31747  21924608.62848  21924609.00347  21924607.68447
  14271546.83646  11120686.37246  23984588.76248  23984587.74946  23984588.75946
 08 10 24 19 13 50.0000000  0  7 11 14 17 19 20 22 28
  -9116208.84048  -7103539.39348  20313997.20149  20313997.20548  20313997.41748
  -9675399.67848  -7539272.58948  20301652.22648  20301652.08548  20301653.11248
  34659367.76346  27007303.04646  26296216.62748  26296215.71146  26296218.19946
 -12589317.52148  -9809858.51448  20523315.68548  20523314.78448  20523314.56148
    227530.09146    177327.12046  23796888.64248  23796887.48646  23796889.46646
 -10717323.90247  -8351146.24947  21915861.32248  21915861.75247  21915860.20547
  14624432.04446  11395661.83946  24051740.26148  24051741.04946  24051740.58446
 08 10 24 19 14 00.0000000  0  8 03 11 14 17 19 20 22 28
   -253933.32556   -197871.00156  23505631.70857  23505632.08856  23505634.07856
  -8927413.39648  -6956426.07348  20349923.72649  20349923.82148  20349924.09748
  -9848756.41448  -7674355.77948  20268663.62748  20268663.46448  20268664.33748
  34975067.83946  27253305.15346  26356292.78647  26356292.51246  26356294.67246
 -12699306.50748  -9895564.23448  20502385.18048  20502384.54448  20502384.44748
    266798.20846    207926.61046  23804360.98648  23804359.94846  23804363.24746
 -10760416.25847  -8384724.74247  21907661.17048  21907661.14847  21907660.25447
  14977962.84246  11671140.38846  24119014.65048  24119015.40246  24119015.54846
 08 10 24 19 14 10.0000000  0  8 03 11 14 17 19 20 22 28
   -483867.27346   -377036.87146  23461876.05447  23461876.10546  23461878.15846
  -8736200.17948  -6807428.77848  20386310.41049  20386310.55548  20386310.72648
 -10017426.12648  -7805786.73348  20236566.81548  20236566.61548  20236567.75248
  35290625.22846  27499199.57746  26416340.61247  26416341.72846  26416340.75546
 -12806733.92448  -9979273.93248  20481942.75748  20481941.86448  20481941.60548
    307780.54646    239862.82846  23812159.31048  23812159.00146  23812160.17046
 -10800633.80547  -8416063.13747  21900008.06248  21900007.88147  21900006.78947
  15332103.43446  11947094.07746  24186406.06648  24186405.21946  24186406.08046
 08 10 24 19 14 20.0000000  0  8 03 11 14 17 19 20 22 28
   -712908.56646   -555506.22946  23418291.67648  23418291.55946  23418294.24046
  -8542589.98948  -6656563.70848  20423153.27849  20423153.27548  20423153.43848
 -10181369.15248  -7933534.56348  20205369.65848  20205369.41748  20205370.42648
  35606023.25146  27744962.21946  26476359.22947  26476359.70946  26476360.73246
 -12911583.99548 -10060975.30748  20461990.32348  20461989.56648  20461989.31348
    350484.12746    273138.55346  23820285.89648  23820286.58946  23820287.27046
 -10837975.84547  -8445160.85347  21892902.26448  21892901.98447  21892901.18247
  15686819.79346  12223496.41946  24253905.84048  24253906.19146  24253906.54046
 08 10 24 19 14 30.0000000  0  7 03 11 14 19 20 22 28
   -941033.80546   -733273.64046  23374881.70348  23374881.36846  23374883.64546
  -8346601.99248  -6503845.80448  20460448.50949  20460448.59248  20460448.91348
 -10340545.03448  -8057567.73548  20175079.44948  20175079.24648  20175080.19148
 -13013839.10448 -10140654.63548  20442531.82048  20442531.01548  20442530.78948
    394917.30546    307765.99246  23828740.65648  23828740.29246  23828740.94246
 -10872440.30247  -8472016.30347  21886344.02048  21886343.40847  21886342.98947
  16042080.05646  12500322.57846  24321509.80848  24321510.15746  24321509.82346
 08 10 24 19 14 40.0000000  0  7 03 11 14 19 20 22 28
  -1168217.96546   -910299.37246  23331648.59448  23331649.23646  23331649.97946
  -8148254.03848  -6349288.97548  20498192.94449  20498192.99448  20498193.28948
 -10494912.87948  -8177854.38748  20145704.27848  20145703.98748  20145705.10348
 -13113480.54948 -10218297.33348  20423570.81048  20423570.05148  20423569.70248
    441089.73146    343744.22446  23837527.44448  23837525.61946  23837528.39946
 -10904024.30947  -8496627.24147  21880333.53348  21880333.45547  21880332.51647
  16397853.79246  12777548.84946  24389211.88248  24389210.95746  24389212.11346
 08 10 24 19 14 50.0000000  0  7 03 11 14 19 20 22 28
  -1394436.15646  -1086574.69646  23288600.91148  23288599.75546  23288603.08346
  -7947564.02348  -6192907.16348  20536382.96149  20536383.01148  20536383.31648
 -10644432.48648  -8294363.19448  20117251.49548  20117251.39448  20117252.49548
 -13210489.92048 -10293889.07448  20405110.49248  20405109.64248  20405109.49548
    489011.03946    381084.69546  23846647.55548  23846647.25546  23846648.37646
 -10932725.27547  -8518991.66947  21874872.21448  21874872.04147  21874870.97747
  16754111.42546  13055152.19946  24457004.79748  24457005.01246  24457005.24546
 08 10 24 19 15 00.0000000  0  7 03 11 14 19 20 22 28
  -1619666.94146  -1262082.27046  23245741.47548  23245738.61446  23245744.69646
  -7744553.85248  -6034717.43648  20575014.52649  20575014.59348  20575014.89148
 -10789068.65148  -8407066.72548  20089728.18848  20089728.09948  20089728.98948
 -13304852.80448 -10367418.61948  20387153.78448  20387153.01348  20387152.68148
    538686.63146    419795.09746  23856099.80248  23856099.11346  23856100.79346
 -10958544.76947  -8539110.79347  21869958.62248  21869958.90747  21869957.59747
  17110819.60646  13333106.58946  24524883.87148  24524885.48246  24524885.22746
 08 10 24 19 15 10.0000000  0  7 03 11 14 19 20 22 28
  -1843893.69146  -1436821.68746  23203074.03648  23203072.82146  23203076.64346
  -7539250.29348  -5874740.65748  20614082.53149  20614082.60548  20614082.75348
 -10928792.05548  -8515942.12548  20063139.70348  20063139.62748  20063140.72448
 -13396559.93948 -10438878.74548  20369702.63748  20369701.81748  20369701.62248
    590117.09646    459872.21246  23865886.28648  23865885.81946  23865887.69746
 -10981489.89347  -8556990.15047  21865592.55448  21865592.32547  21865591.79247
  17467940.28746  13611382.42446  24592842.32848  24592842.93546  24592841.82346
 08 10 24 19 15 20.0000000  0  7 03 11 14 19 20 22 28
  -2067101.78346  -1610755.55846  23160596.98248  23160594.72346  23160599.25746
  -7331682.10248  -5712999.22948  20653581.50749  20653581.55648  20653581.62048
 -11063576.27648  -8620968.81748  20037491.00548  20037491.07948  20037492.19648
 -13485604.19948 -10508263.90048  20352758.03348  20352757.21848  20352757.07048
    643300.58146    501314.03646  23876007.13248  23876006.11546  23876007.94946
 -11001569.95647  -8572636.99147  21861771.26148  21861771.27847  21861770.55247
  17825434.11346  13889949.09746  24660871.18148  24660869.89646  24660871.64346
 08 10 24 19 15 30.0000000  0  7 03 11 14 19 20 22 28
  -2289279.13946  -1783884.95746  23118318.44048  23118318.50646  23118321.20246
  -7121880.76848  -5549517.69248  20693505.40349  20693505.37348  20693505.67748
 -11193398.54348  -8722129.05148  20012787.08148  20012786.79748  20012787.72148
 -13571981.48948 -10575570.90148  20336320.93148  20336320.18948  20336320.11748
    698232.68346    544117.20046  23886460.15048  23886461.37946  23886462.15546
 -11018797.35747  -8586060.98547  21858493.00148  21858492.95747  21858492.16547
  18183259.22346  14168771.71446  24728962.63148  24728961.75446  24728963.12146
 08 10 24 19 15 40.0000000  0  7 03 11 14 19 20 22 28
  -2510411.69746  -1956195.97346  23076237.53748  23076237.23646  23076239.51746
  -6909876.41448  -5384319.51448  20733848.36149  20733848.45248  20733848.63648
 -11318235.63248  -8819404.72348  19989031.19748  19989031.09748  19989032.01548
 -13655686.39148 -10640795.51548  20320392.55448  20320391.72848  20320391.55648
    754910.35346    588282.62146  23897246.24248  23897246.30446  23897248.44546
 -11033183.40947  -8597270.92147  21855755.50848  21855755.57247  21855754.74147
  18541375.54746  14447823.39346  24797110.49848  24797109.65646  24797111.12946
 08 10 24 19 15 50.0000000  0  7 03 11 14 19 20 22 28
  -2730483.34346  -2127681.43946  23034359.40348  23034357.43846  23034361.90846
  -6695696.97948  -5217426.47148  20774605.43649  20774605.46448  20774605.65848
 -11438063.17048  -8912776.84748  19966228.79648  19966228.62448  19966229.77348
 -13736711.41348 -10703931.91748  20304973.90948  20304973.11848  20304973.10448
    813332.48646    633804.82946  23908363.02548  23908364.14446  23908365.15546
 -11044737.52847  -8606274.16347  21853557.17548  21853557.30847  21853556.06047
  18899745.75446  14727072.92246  24865305.28548  24865305.47346  24865305.06246
 08 10 24 19 16 00.0000000  0  7 03 11 14 19 20 22 28
  -2949477.68646  -2298326.40046  22992686.15248  22992687.12546  22992687.52446
  -6479370.19148  -5048860.16248  20815771.05649  20815771.05848  20815771.41648
 -11552857.64848  -9002227.10348  19944384.12848  19944384.02648  19944385.18248
 -13815049.20148 -10764974.37048  20290066.74348  20290066.08448  20290065.90648
    873497.91746    680686.42146  23919812.42848  23919810.40346  23919812.38446
 -11053469.49547  -8613078.32547  21851895.41048  21851895.66447  21851894.41147
  19258332.97746  15006492.50946  24933542.88248  24933541.74246  24933543.88346
 08 10 24 19 16 10.0000000  0  7 03 11 14 19 20 22 28
  -3167376.60546  -2468117.06046  22951220.86348  22951221.94246  22951224.99946
  -6260922.47648  -4878641.18748  20857340.44249  20857340.39448  20857340.54848
 -11662595.44348  -9087737.08648  19923501.65648  19923501.55648  19923502.69648
 -13890691.41748 -10823916.37048  20275672.48549  20275671.75548  20275671.59548
    935406.70946    728930.05846  23931593.74148  23931593.84046  23931594.15246
 -11059388.04047  -8617690.20347  21850769.24548  21850769.07747  21850768.27047
  19617101.89146  15286053.67246  25001813.62247  25001812.82846  25001815.04946
 08 10 24 19 16 20.0000000  0  7 03 11 14 19 20 22 28
  -3384161.55546  -2637034.54546  22909968.81548  22909968.26146  22909971.22046
  -6040379.63948  -4706789.65048  20899308.27749  20899308.35748  20899308.58648
 -11767253.18148  -9169288.58148  19903586.07848  19903585.87648  19903586.97048
 -13963629.32448 -10880751.11948  20261792.88049  20261792.16848  20261792.09948
    999059.11246    778527.36046  23943706.03148  23943706.31346  23943706.01646
 -11062501.68247  -8620116.44847  21850176.70948  21850177.15647  21850175.88347
  19976018.17846  15565726.52246  25070114.05947  25070112.90346  25070112.98646
 08 10 24 19 16 30.0000000  0  7 03 11 14 19 20 22 28
  -3599813.32946  -2805068.73746  22868931.58348  22868933.25346  22868932.81746
  -5817766.91948  -4533325.21448  20941670.11649  20941670.13848  20941670.46548
 -11866808.47048  -9246864.13748  19884641.27149  19884641.11348  19884642.25048
 -14033853.83648 -10935471.52948  20248429.66049  20248428.90648  20248428.76448
   1064456.36346    829485.49346  23956153.15748  23956154.51646  23956154.69146
 -11062818.77647  -8620363.56347  21850116.34848  21850116.40547  21850115.34547
  20335048.62646  15845478.49846  25138436.15947  25138434.40946  25138434.30946
 08 10 24 19 16 40.0000000  0  6 03 11 14 19 22 28
  -3814313.07446  -2972210.09046  22828113.29748  22828113.52046  22828116.48746
  -5781327.28548  -4504930.71348  20981516.30649  20981516.41448  20981516.43248
 -11961240.53348  -9320447.56448  19866671.44949  19866671.32148  19866672.42948
 -14101356.92048 -10988071.34848  20235584.22149  20235583.56848  20235583.37248
 -11060348.80347  -8618438.93747  21850586.20448  21850586.36247  21850585.69447
  20694159.69146  16125311.32046  25206773.93147  25206776.23346  25206775.43046
 08 10 24 19 16 50.0000000  0  6 03 11 14 19 22 28
  -4027641.21646  -3138436.84346  22787518.53348  22787518.88646  22787519.94746
  -5674435.25048  -4421638.24248  21027555.69949  21027555.77648  21027555.93048
 -12050529.06648  -9390023.05048  19849680.38249  19849680.29048  19849681.29848
 -14166129.87448 -11038543.79548  20223258.41449  20223257.65548  20223257.50448
 -11055100.71747  -8614349.55047  21851585.08248  21851585.31747  21851584.10347
  21053318.60346  16405192.65846  25275116.11847  25275115.84346  25275116.79646
 08 10 24 19 17 00.0000000  0  6 03 11 14 19 22 28
  -4239777.93446  -3303738.08646  22747150.40048  22747149.46046  22747152.52546
  -5445766.83248  -4243455.08148  21071069.92749  21071069.82448  21071070.05148
 -12134654.93648  -9455575.68348  19833671.62749  19833671.58448  19833672.71248
 -14228164.51048 -11086882.48348  20211453.64749  20211452.79748  20211452.69848
 -11047084.02047  -8608102.79547  21853110.52848  21853110.88147  21853109.91047
  21412492.50446  16685067.83446  25343464.32647  25343463.31046  25343466.34846
 08 10 24 19 17 10.0000000  0  5 03 11 14 19 22
  -4450703.39146  -3468095.57846  22707012.83748  22707012.24646  22707015.01346
  -5215130.29948  -4063738.32348  21114958.49448  21114958.48548  21114958.96848
 -12213600.09348  -9517091.39448  19818648.93249  19818648.75548  19818649.99548
 -14287452.76848 -11133081.13648  20200171.44049  20200170.63648  20200170.59248
 -11036308.45947  -8599706.27747  21855161.01348  21855161.15647  21855160.39647
 08 10 24 19 17 20.0000000  0  5 03 11 14 19 22
  -4660397.95946  -3631493.93646  22667109.06148  22667108.63546  22667110.61946
  -4982551.02948  -3882507.74348  21159216.90748  21159217.02448  21159217.24848
 -12287348.00548  -9574557.30348  19804615.26049  19804615.00448  19804616.26148
 -14343987.09248 -11177133.86448  20189413.33549  20189412.46548  20189412.45648
 -11022784.46647  -8589168.11947  21857734.53648  21857734.73947  21857733.98847
 08 10 24 19 17 30.0000000  0  5 03 11 14 19 22
  -4868841.70046  -3793917.64946  22627443.67848  22627443.00646  22627445.77346
  -4748054.23348  -3699782.99148  21203840.20348  21203840.13848  21203840.71148
 -12355883.33048  -9627961.45848  19791573.44949  19791573.27848  19791574.43848
 -14397760.26948 -11219035.05648  20179180.65149  20179179.87248  20179179.83448
 -11006522.85847  -8576496.76447  21860829.22148  21860828.99147  21860828.34147
 08 10 24 19 17 40.0000000  0  5 03 11 14 19 22
  -5076015.76046  -3955351.93546  22588019.54648  22588019.85346  22588021.20146
  -4511666.32648  -3515584.63948  21248823.32848  21248823.38948  21248823.61148
 -12419193.03548  -9677293.70748  19779526.01949  19779525.81548  19779527.04148
 -14448766.24048 -11258779.98148  20169474.53749  20169473.71748  20169473.74248
 -10987535.46447  -8561701.41147  21864442.15048  21864442.23947  21864441.70547
 08 10 24 19 17 50.0000000  0  5 03 11 14 19 22
  -5281907.52846  -4115787.09646  22548839.79948  22548839.23146  22548840.82546
  -4273420.16348  -3329938.30348  21294160.02648  21294159.98848  21294160.57748
 -12477271.87348  -9722549.95048  19768474.01449  19768473.95048  19768475.02348
 -14497005.92248 -11296369.35348  20160294.64449  20160293.96748  20160294.06348
 -10965841.31647  -8544796.90047  21868570.62648  21868570.46947  21868570.06747
 08 10 24 19 18 00.0000000  0  5 03 11 14 19 22
  -5486507.01646  -4275215.24346  22509905.82048  22509906.13546  22509908.24346
  -4033350.99948  -3142871.43648  21339843.70848  21339843.59648  21339844.08848
 -12530118.35448  -9763729.03348  19758417.61849  19758417.51048  19758418.64048
 -14542482.86248 -11331805.94048  20151640.80449  20151640.03448  20151640.12248
 -10941462.19047  -8525800.20047  21873209.73348  21873209.95647  21873209.12847
 08 10 24 19 18 10.0000000  0  5 03 11 14 19 22
  -5689804.15346  -4433628.58846  22471219.60548  22471219.31846  22471221.90846
  -3791494.20048  -2954411.61148  21385867.46048  21385867.57548  21385867.85448
 -12577732.38548  -9800830.88448  19749356.90749  19749356.70748  19749357.84148
 -14585201.15148 -11365092.92548  20143511.79949  20143511.01248  20143511.07948
 -10914420.39747  -8504728.69247  21878355.60348  21878355.64647  21878355.18547
 08 10 24 19 18 20.0000000  0  6 03 06 11 14 19 22
  -5891787.34246  -4591018.09246  22432783.43948  22432783.05546  22432785.75046
   -254185.00756   -198073.20956  22912212.50157  22912212.69956  22912214.41456
  -3547883.79148  -2764585.34048  21432224.97248  21432225.04848  21432225.56448
 -12620113.79848  -9833855.37048  19741292.04549  19741291.91648  19741293.07948
 -14625163.73148 -11396232.60348  20135907.13049  20135906.46148  20135906.38248
 -10884737.26347  -8481598.99247  21884004.07648  21884004.11547  21884003.70347
 08 10 24 19 18 30.0000000  0  6 03 06 11 14 19 22
  -6092442.63246  -4747372.84546  22394600.08948  22394599.69746  22394602.39546
   -507467.79246   -395438.52946  22864014.07647  22864013.49546  22864015.32046
  -3302551.27748  -2573417.16948  21478910.23648  21478910.22248  21478910.82348
 -12657261.29748  -9862801.48148  19734223.04749  19734223.00748  19734224.12248
 -14662371.51948 -11425225.69148  20128826.75149  20128826.03748  20128825.97548
 -10852431.92247  -8456426.02947  21890151.61748  21890151.68847  21890151.10947
 08 10 24 19 18 40.0000000  0  5 03 11 14 19 22
  -6291751.18246  -4902678.19646  22356672.69048  22356672.74446  22356674.44346
  -3055523.35848  -2380927.90148  21525918.13048  21525918.12548  21525918.58748
 -12689170.21048  -9887665.57748  19728151.16249  19728150.96348  19728152.08948
 -14696820.95348 -11452069.41448  20122271.27949  20122270.58148  20122270.56348
 -10817519.18447  -8429221.32547  21896795.37848  21896795.93347  21896794.90847
 08 10 24 19 18 50.0000000  0  5 03 11 14 19 22
  -6489691.44246  -5056917.35446  22319005.85648  22319006.61246  22319008.34046
  -2806823.96748  -2187136.18748  21573244.02248  21573243.96148  21573244.65948
 -12715834.45148  -9908442.91748  19723077.00349  19723076.88548  19723078.24148
 -14728506.14048 -11476759.17948  20116241.65449  20116241.01048  20116241.02548
 -10780011.40647  -8399994.50547  21903932.90648  21903933.23147  21903932.35447
 08 10 24 19 19 00.0000000  0  5 03 11 14 19 22
  -6686239.83446  -5210071.93246  22281604.15748  22281604.36446  22281606.40146
  -2556475.09348  -1992059.16348  21620883.87748  21620883.97448  21620884.43248
 -12737247.26248  -9925128.23848  19719002.31349  19719002.23648  19719003.42448
 -14757419.54948 -11499289.11648  20110739.72649  20110739.05948  20110738.99248
 -10739919.40647  -8368754.01347  21911562.22448  21911562.44647  21911561.52347
 08 10 24 19 19 10.0000000  0  5 03 11 14 19 22
  -6881371.77846  -5362122.78046  22244471.80748  22244472.67146  22244473.87346
  -2304497.75148  -1795713.19748  21668833.64348  21668833.57048  21668834.20448
 -12753402.31448  -9937716.60048  19715928.11449  19715928.00448  19715929.23348
 -14783553.08448 -11519652.91248  20105766.78549  20105765.98548  20105765.99848
 -10697253.49547  -8335507.86647  21919681.08248  21919681.40447  21919680.42447
 08 10 24 19 19 20.0000000  0  5 03 11 14 19 22
  -7075063.99746  -5513051.76646  22207613.22748  22207612.88446  22207615.58046
  -2050914.07648  -1598115.54748  21717089.05448  21717089.11848  21717089.52448
 -12764295.93748  -9946205.15348  19713855.13449  19713855.04548  19713856.12048
 -14806900.16148 -11537845.45048  20101323.84049  20101323.13348  20101323.20348
 -10652025.49347  -8300265.29447  21928287.94948  21928287.99647  21928287.17747
 08 10 24 19 19 30.0000000  0  5 03 11 14 19 22
  -7267296.22846  -5662843.10946  22171032.95748  22171032.18546  22171035.25746
  -1795749.22148  -1399285.80748  21765645.07548  21765645.33048  21765646.00648
 -12769928.80848  -9950594.41648  19712783.21249  19712783.11048  19712784.29448
 -14827457.59148 -11553864.23448  20097411.87249  20097411.19948  20097411.24848
 -10604250.51547  -8263038.06547  21937379.06648  21937379.25647  21937378.43847
 08 10 24 19 19 40.0000000  0  5 03 11 14 19 22
  -7458045.88046  -5811479.20346  22134734.11848  22134734.26446  22134736.13346
  -1539026.15948  -1199241.87648  21814498.04848  21814497.98348  21814498.55548
 -12770300.84248  -9950884.31848  19712712.42849  19712712.33148  19712713.53148
 -14845220.34848 -11567705.34848  20094031.72949  20094031.08448  20094031.03648
 -10553941.76147  -8223836.45447  21946952.68948  21946952.67247  21946951.84347
 08 10 24 19 19 50.0000000  0  5 03 11 14 19 22
  -7647292.29746  -5958943.91246  22098722.24548  22098722.26746  22098724.04346
  -1280769.69548   -998003.09148  21863642.69648  21863642.57948  21863643.21048
 -12765415.26048  -9947077.37648  19713642.19649  19713642.02448  19713643.12448
 -14860185.70348 -11579366.66448  20091183.93249  20091183.31648  20091183.26348
 -10501114.88947  -8182672.67747  21957005.19348  21957005.20147  21957004.52547
 08 10 24 19 20 00.0000000  0  5 03 11 14 19 22
  -7835015.15046  -6105221.46846  22062999.25648  22062998.94446  22063001.31246
  -1021004.79448   -795588.90148  21913074.21448  21913074.28848  21913074.70248
 -12755276.70748  -9939177.21448  19715571.39849  19715571.32748  19715572.47148
 -14872351.53448 -11588846.53448  20088868.98549  20088868.23848  20088868.26248
 -10445785.98047  -8139559.26147  21967534.17148  21967534.07247  21967533.48947
 08 10 24 19 20 10.0000000  0  5 03 11 14 19 22
  -8021194.55347  -6250296.31846  22027570.73148  22027570.24747  22027572.92146
   -759757.06247   -592019.25347  21962788.27248  21962788.24347  21962788.59447
 -12739891.84048  -9927189.01648  19718499.18049  19718499.14248  19718500.21848
